{
"type": "FeatureCollection",
"name": "waterpoints",
"crs": { "type": "name", "properties": { "name": "urn:ogc:def:crs:OGC:1.3:CRS84" } },
"features": [
{ "type": "Feature", "properties": { "id": 1, "address": "Cooper Street", "location": "215 COOPER STREET EPPING /EDGARS RPAD M 181 H12 (242309)", "maxvolume": 0.0, "strategic": "Tactical", "sub_type": "Dam" }, "geometry": { "type": "Point", "coordinates": [ 145.00826381501011, -37.651758847406995 ] } },
{ "type": "Feature", "properties": { "id": 1, "address": "Cooper Street", "location": "215 COOPER STREET EPPING /EDGARS RPAD M 181 H12 (242309)", "maxvolume": 0.0, "strategic": "Tactical", "sub_type": "Dam" }, "geometry": { "type": "Point", "coordinates": [ 145.00826381501011, -37.651758847406995 ] } },
{ "type": "Feature", "properties": { "id": 2, "address": "Northwood Road", "location": "NORTHWOOD ROAD NORTHWOOD SV 6112 B3 (315076)", "maxvolume": 20000.0, "strategic": "Tactical", "sub_type": "Fire Water Tank" }, "geometry": { "type": "Point", "coordinates": [ 145.107909553487701, -36.962182880235517 ] } },
{ "type": "Feature", "properties": { "id": 3, "address": "Northwood Road", "location": "NORTHWOOD ROAD NORTHWOOD SV 6112 B3 (315076)", "maxvolume": 20000.0, "strategic": "Tactical", "sub_type": "Fire Water Tank" }, "geometry": { "type": "Point", "coordinates": [ 145.107919778869928, -36.962227172158116 ] } },
{ "type": "Feature", "properties": { "id": 4, "address": "Sugarloaf Creek Road", "location": "CNR SUGERLOAF CREEK ROAD SUGARLOAF CREEK /SEYMOUR - PYALONG ROAD SV 362 G9 (239935)", "maxvolume": 22000.0, "strategic": "Tactical", "sub_type": "Fire Water Tank" }, "geometry": { "type": "Point", "coordinates": [ 145.019259027645774, -37.087838974688488 ] } },
{ "type": "Feature", "properties": { "id": 5, "address": "Sugarloaf Creek Road", "location": "CNR SUGARLOAF CREEK ROAD SUGARLOAF CREEK /SEYMOUR - PYALONG ROAD SV 362 G9 (239935)", "maxvolume": 22000.0, "strategic": "Tactical", "sub_type": "Fire Water Tank" }, "geometry": { "type": "Point", "coordinates": [ 145.019287240397205, -37.087864289529854 ] } },
{ "type": "Feature", "properties": { "id": 6, "address": "Ghin Ghin Road", "location": "CNR GHIN GHIN ROAD WHITEHEADS CREEK /KOBYBOYN ROAD //HIGHLANDS ROAD SV 363 K6 (485986)", "maxvolume": 22000.0, "strategic": "Tactical", "sub_type": "Fire Water Tank" }, "geometry": { "type": "Point", "coordinates": [ 145.296969327549107, -37.04648501187409 ] } },
{ "type": "Feature", "properties": { "id": 7, "address": "Ghin Ghin Road", "location": "CNR GHIN GHIN ROAD WHITEHEADS CREEK /KOBYBOYN ROAD //HIGHLANDS ROAD SV 363 K6 (485986)", "maxvolume": 22000.0, "strategic": "Tactical", "sub_type": "Fire Water Tank" }, "geometry": { "type": "Point", "coordinates": [ 145.296983997323878, -37.046538186661479 ] } },
{ "type": "Feature", "properties": { "id": 8, "address": "Mollison Street", "location": "2 MOLLISON STREET PYALONG /NORTHERN HIGHWAY SV 8382 E3 (098899)", "maxvolume": 22000.0, "strategic": "Tactical", "sub_type": "Fire Water Tank" }, "geometry": { "type": "Point", "coordinates": [ 144.859519901208586, -37.117899435900405 ] } },
{ "type": "Feature", "properties": { "id": 9, "address": "Mollison Street", "location": "2 MOLLISON STREET PYALONG /NORTHERN HIGHWAY SV 8382 E3 (098899)", "maxvolume": 22000.0, "strategic": "Tactical", "sub_type": "Fire Water Tank" }, "geometry": { "type": "Point", "coordinates": [ 144.859524, -37.117938 ] } },
{ "type": "Feature", "properties": { "id": 10, "address": "Mollison Street", "location": "2 MOLLISON STREET PYALONG /NORTHERN HIGHWAY SV 8382 E3 (098899)", "maxvolume": 22000.0, "strategic": "Tactical", "sub_type": "Fire Water Tank" }, "geometry": { "type": "Point", "coordinates": [ 144.859524, -37.117938 ] } },
{ "type": "Feature", "properties": { "id": 11, "address": "Whitegate Road", "location": "WHITEGATE ROAD HIGH CAMP SV 362 C13 (143845)", "maxvolume": 20000.0, "strategic": "Tactical", "sub_type": "Fire Water Tank" }, "geometry": { "type": "Point", "coordinates": [ 144.908585874539227, -37.167071738810975 ] } },
{ "type": "Feature", "properties": { "id": 12, "address": "Whitegate Road", "location": "215 WHITEGATE ROAD HIGH CAMP /NORTHERN HIGHWAY SV 362 C13 (143845)", "maxvolume": 0.0, "strategic": "Tactical", "sub_type": "Fire Water Tank" }, "geometry": { "type": "Point", "coordinates": [ 144.90862235422901, -37.16704759450738 ] } },
{ "type": "Feature", "properties": { "id": 13, "address": "Watchbox Road", "location": "CNR WATCHBOX ROAD GLENHOPE /LINTONS LANE SV 6191 E4 (844916)", "maxvolume": 22000.0, "strategic": "Tactical", "sub_type": "Fire Water Tank" }, "geometry": { "type": "Point", "coordinates": [ 144.574868343500611, -37.096882952035173 ] } },
{ "type": "Feature", "properties": { "id": 14, "address": "Burke and Wills Track T", "location": "BURKE AND WILLS TRACK T GLENHOPE /WATCHBOX RD SV 6191 H3 (875928)", "maxvolume": 20000.0, "strategic": "Tactical", "sub_type": "Fire Water Tank" }, "geometry": { "type": "Point", "coordinates": [ 144.609234, -37.086454 ] } },
{ "type": "Feature", "properties": { "id": 15, "address": "Donnybrook Road", "location": "870 DONNYBROOK ROAD DONNYBROOK /LANGLEY PARK DRIVE M 367 K6 (211428)", "maxvolume": 0.0, "strategic": "Tactical", "sub_type": "Fire Water Tank" }, "geometry": { "type": "Point", "coordinates": [ 144.975031321993782, -37.543581072275458 ] } },
{ "type": "Feature", "properties": { "id": 16, "address": "Konagaderra Road", "location": "KONAGADERRA ROAD WILDWOOD /PALMERS LANE SV 6445 E5 (041452)", "maxvolume": 35000.0, "strategic": "Tactical", "sub_type": "Fire Water Tank" }, "geometry": { "type": "Point", "coordinates": [ 144.784216750813783, -37.519211861575144 ] } },
{ "type": "Feature", "properties": { "id": 17, "address": "Konagaderra Road", "location": "625 KONAGADERRA ROAD WILDWOOD /PALMERS LANE SV 6445 E5 (041452)", "maxvolume": 0.0, "strategic": "Strategic", "sub_type": "Fire Water Tank" }, "geometry": { "type": "Point", "coordinates": [ 144.784281627249101, -37.519218127700775 ] } },
{ "type": "Feature", "properties": { "id": 18, "address": "Clark Ct", "location": "CLARK CT SUNBURY /LANCEFIELD ROAD M 363 D4 (031435)", "maxvolume": 35000.0, "strategic": "Tactical", "sub_type": "Fire Water Tank" }, "geometry": { "type": "Point", "coordinates": [ 144.772020780194367, -37.53439625450298 ] } },
{ "type": "Feature", "properties": { "id": 2, "address": "Northwood Road", "location": "NORTHWOOD ROAD NORTHWOOD SV 6112 B3 (315076)", "maxvolume": 20000.0, "strategic": "Tactical", "sub_type": "Fire Water Tank" }, "geometry": { "type": "Point", "coordinates": [ 145.107909553487701, -36.962182880235517 ] } },
{ "type": "Feature", "properties": { "id": 3, "address": "Northwood Road", "location": "NORTHWOOD ROAD NORTHWOOD SV 6112 B3 (315076)", "maxvolume": 20000.0, "strategic": "Tactical", "sub_type": "Fire Water Tank" }, "geometry": { "type": "Point", "coordinates": [ 145.107919778869928, -36.962227172158116 ] } },
{ "type": "Feature", "properties": { "id": 4, "address": "Sugarloaf Creek Road", "location": "CNR SUGERLOAF CREEK ROAD SUGARLOAF CREEK /SEYMOUR - PYALONG ROAD SV 362 G9 (239935)", "maxvolume": 22000.0, "strategic": "Tactical", "sub_type": "Fire Water Tank" }, "geometry": { "type": "Point", "coordinates": [ 145.019259027645774, -37.087838974688488 ] } },
{ "type": "Feature", "properties": { "id": 5, "address": "Sugarloaf Creek Road", "location": "CNR SUGARLOAF CREEK ROAD SUGARLOAF CREEK /SEYMOUR - PYALONG ROAD SV 362 G9 (239935)", "maxvolume": 22000.0, "strategic": "Tactical", "sub_type": "Fire Water Tank" }, "geometry": { "type": "Point", "coordinates": [ 145.019287240397205, -37.087864289529854 ] } },
{ "type": "Feature", "properties": { "id": 23, "address": null, "location": "STRATHEWEN SV 6449 G8 (465422)", "maxvolume": 0.0, "strategic": "Tactical", "sub_type": "Suction Point" }, "geometry": { "type": "Point", "coordinates": [ 145.262550886855792, -37.554276051126152 ] } },
{ "type": "Feature", "properties": { "id": 24, "address": null, "location": "STRATHEWEN SV 6449 G8 (465421)", "maxvolume": 0.0, "strategic": "Tactical", "sub_type": "Suction Point" }, "geometry": { "type": "Point", "coordinates": [ 145.262201157222819, -37.554449741014899 ] } },
{ "type": "Feature", "properties": { "id": 6, "address": "Ghin Ghin Road", "location": "CNR GHIN GHIN ROAD WHITEHEADS CREEK /KOBYBOYN ROAD //HIGHLANDS ROAD SV 363 K6 (485986)", "maxvolume": 22000.0, "strategic": "Tactical", "sub_type": "Fire Water Tank" }, "geometry": { "type": "Point", "coordinates": [ 145.296969327549107, -37.04648501187409 ] } },
{ "type": "Feature", "properties": { "id": 7, "address": "Ghin Ghin Road", "location": "CNR GHIN GHIN ROAD WHITEHEADS CREEK /KOBYBOYN ROAD //HIGHLANDS ROAD SV 363 K6 (485986)", "maxvolume": 22000.0, "strategic": "Tactical", "sub_type": "Fire Water Tank" }, "geometry": { "type": "Point", "coordinates": [ 145.296983997323878, -37.046538186661479 ] } },
{ "type": "Feature", "properties": { "id": 27, "address": "Mine Road", "location": "MINE ROAD NUTFIELD M 392 K11 (404364)", "maxvolume": 0.0, "strategic": "Tactical", "sub_type": "Hydrant" }, "geometry": { "type": "Point", "coordinates": [ 145.192481572011729, -37.605218143903699 ] } },
{ "type": "Feature", "properties": { "id": 28, "address": "Mine Road", "location": "MINE ROAD NUTFIELD M 392 J12 (403362)", "maxvolume": 0.0, "strategic": "Tactical", "sub_type": "Hydrant" }, "geometry": { "type": "Point", "coordinates": [ 145.191026088837361, -37.60709153469675 ] } },
{ "type": "Feature", "properties": { "id": 29, "address": "Mine Road", "location": "MINE ROAD NUTFIELD M 392 J12 (402361)", "maxvolume": 0.0, "strategic": "Tactical", "sub_type": "Hydrant" }, "geometry": { "type": "Point", "coordinates": [ 145.18982084174533, -37.607580272930676 ] } },
{ "type": "Feature", "properties": { "id": 8, "address": "Mollison Street", "location": "2 MOLLISON STREET PYALONG /NORTHERN HIGHWAY SV 8382 E3 (098899)", "maxvolume": 22000.0, "strategic": "Tactical", "sub_type": "Fire Water Tank" }, "geometry": { "type": "Point", "coordinates": [ 144.859519901208586, -37.117899435900405 ] } },
{ "type": "Feature", "properties": { "id": 9, "address": "Mollison Street", "location": "2 MOLLISON STREET PYALONG /NORTHERN HIGHWAY SV 8382 E3 (098899)", "maxvolume": 22000.0, "strategic": "Tactical", "sub_type": "Fire Water Tank" }, "geometry": { "type": "Point", "coordinates": [ 144.859524, -37.117938 ] } },
{ "type": "Feature", "properties": { "id": 10, "address": "Mollison Street", "location": "2 MOLLISON STREET PYALONG /NORTHERN HIGHWAY SV 8382 E3 (098899)", "maxvolume": 22000.0, "strategic": "Tactical", "sub_type": "Fire Water Tank" }, "geometry": { "type": "Point", "coordinates": [ 144.859524, -37.117938 ] } },
{ "type": "Feature", "properties": { "id": 33, "address": "Smiths Gully Road", "location": "80 SMITHS GULLY ROAD SMITHS GULLY /SPANISH GULLY ROAD M 264 H4 (478345)", "maxvolume": 0.0, "strategic": "Strategic", "sub_type": "Dam" }, "geometry": { "type": "Point", "coordinates": [ 145.275738836750548, -37.623159242858584 ] } },
{ "type": "Feature", "properties": { "id": 11, "address": "Whitegate Road", "location": "WHITEGATE ROAD HIGH CAMP SV 362 C13 (143845)", "maxvolume": 20000.0, "strategic": "Tactical", "sub_type": "Fire Water Tank" }, "geometry": { "type": "Point", "coordinates": [ 144.908585874539227, -37.167071738810975 ] } },
{ "type": "Feature", "properties": { "id": 35, "address": "Yaralla Road", "location": "65 YARALLA ROAD PANTON HILL /KANGAROO GROUND - ST ANDREWS ROAD M 263 H11 (436314)", "maxvolume": 0.0, "strategic": "Strategic", "sub_type": "Dam" }, "geometry": { "type": "Point", "coordinates": [ 145.22805059291241, -37.650934096660301 ] } },
{ "type": "Feature", "properties": { "id": 12, "address": "Whitegate Road", "location": "215 WHITEGATE ROAD HIGH CAMP /NORTHERN HIGHWAY SV 362 C13 (143845)", "maxvolume": 0.0, "strategic": "Tactical", "sub_type": "Fire Water Tank" }, "geometry": { "type": "Point", "coordinates": [ 144.90862235422901, -37.16704759450738 ] } },
{ "type": "Feature", "properties": { "id": 13, "address": "Watchbox Road", "location": "CNR WATCHBOX ROAD GLENHOPE /LINTONS LANE SV 6191 E4 (844916)", "maxvolume": 22000.0, "strategic": "Tactical", "sub_type": "Fire Water Tank" }, "geometry": { "type": "Point", "coordinates": [ 144.574868343500611, -37.096882952035173 ] } },
{ "type": "Feature", "properties": { "id": 14, "address": "Burke and Wills Track T", "location": "BURKE AND WILLS TRACK T GLENHOPE /WATCHBOX RD SV 6191 H3 (875928)", "maxvolume": 20000.0, "strategic": "Tactical", "sub_type": "Fire Water Tank" }, "geometry": { "type": "Point", "coordinates": [ 144.609234, -37.086454 ] } },
{ "type": "Feature", "properties": { "id": 39, "address": "Long Gully Road", "location": "350 LONG GULLY ROAD PANTON HILL /KANGAROO GROUND - ST ANDREWS ROAD M 264 C8 (457328)", "maxvolume": 0.0, "strategic": "Tactical", "sub_type": "Dam" }, "geometry": { "type": "Point", "coordinates": [ 145.251729687315247, -37.638696412048731 ] } },
{ "type": "Feature", "properties": { "id": 15, "address": "Donnybrook Road", "location": "870 DONNYBROOK ROAD DONNYBROOK /LANGLEY PARK DRIVE M 367 K6 (211428)", "maxvolume": 0.0, "strategic": "Tactical", "sub_type": "Fire Water Tank" }, "geometry": { "type": "Point", "coordinates": [ 144.975031321993782, -37.543581072275458 ] } },
{ "type": "Feature", "properties": { "id": 16, "address": "Konagaderra Road", "location": "KONAGADERRA ROAD WILDWOOD /PALMERS LANE SV 6445 E5 (041452)", "maxvolume": 35000.0, "strategic": "Tactical", "sub_type": "Fire Water Tank" }, "geometry": { "type": "Point", "coordinates": [ 144.784216750813783, -37.519211861575144 ] } },
{ "type": "Feature", "properties": { "id": 17, "address": "Konagaderra Road", "location": "625 KONAGADERRA ROAD WILDWOOD /PALMERS LANE SV 6445 E5 (041452)", "maxvolume": 0.0, "strategic": "Strategic", "sub_type": "Fire Water Tank" }, "geometry": { "type": "Point", "coordinates": [ 144.784281627249101, -37.519218127700775 ] } },
{ "type": "Feature", "properties": { "id": 43, "address": "Sprys Lane", "location": "SPRYS LANE HURSTBRIDGE M 263 A10 (410319)", "maxvolume": 0.0, "strategic": "Tactical", "sub_type": "Dam" }, "geometry": { "type": "Point", "coordinates": [ 145.198795876986452, -37.64558279178528 ] } },
{ "type": "Feature", "properties": { "id": 44, "address": "Knowle Grove", "location": "END KNOWLE GROVE HURSTBRIDGE M 185 H8 (400325)", "maxvolume": 0.0, "strategic": "Tactical", "sub_type": "Hydrant" }, "geometry": { "type": "Point", "coordinates": [ 145.186881068333008, -37.639858784508299 ] } },
{ "type": "Feature", "properties": { "id": 18, "address": "Clark Ct", "location": "CLARK CT SUNBURY /LANCEFIELD ROAD M 363 D4 (031435)", "maxvolume": 35000.0, "strategic": "Tactical", "sub_type": "Fire Water Tank" }, "geometry": { "type": "Point", "coordinates": [ 144.772020780194367, -37.53439625450298 ] } },
{ "type": "Feature", "properties": { "id": 46, "address": "Greysharps Road", "location": "50 GREYSHARPS ROAD HURSTBRIDGE M 185 J9 (402325)", "maxvolume": 0.0, "strategic": "Tactical", "sub_type": "Hydrant" }, "geometry": { "type": "Point", "coordinates": [ 145.189811329140014, -37.640766886111109 ] } },
{ "type": "Feature", "properties": { "id": 1005, "address": "Clintons Rd", "location": "CLINTONS RD SMITHS GULLY /ELTHAM - YARRA GLEN RD M 265 A11 (487316)", "maxvolume": 44000.0, "strategic": "Tactical", "sub_type": "Fire Water Tank" }, "geometry": { "type": "Point", "coordinates": [ 145.285581953417278, -37.649428673522088 ] } },
{ "type": "Feature", "properties": { "id": 1006, "address": "Eltham - Yarra Glen Rd", "location": "ELTHAM - YARRA GLEN RD CHRISTMAS HILLS /SCHOLZ RD M 265 E12 (504313)", "maxvolume": 22000.0, "strategic": "Tactical", "sub_type": "Fire Water Tank" }, "geometry": { "type": "Point", "coordinates": [ 145.304692438694019, -37.652575425093993 ] } },
{ "type": "Feature", "properties": { "id": 1007, "address": "Muir Rd", "location": "MUIR RD CHRISTMAS HILLS /RIDGE RD //MOOROOL CT M 273 J2 (522305)", "maxvolume": 0.0, "strategic": "Strategic", "sub_type": "Dam" }, "geometry": { "type": "Point", "coordinates": [ 145.325102294881361, -37.660631779958607 ] } },
{ "type": "Feature", "properties": { "id": 169, "address": null, "location": "RESEARCH M 22 K1 (406258)", "maxvolume": 0.0, "strategic": "Tactical", "sub_type": "Hydrant" }, "geometry": { "type": "Point", "coordinates": [ 145.192838711436792, -37.700387722264274 ] } },
{ "type": "Feature", "properties": { "id": 1008, "address": "Ridge Rd", "location": "720 RIDGE RD CHRISTMAS HILLS /MUIR RD //SCHOOL LA M 273 H2 (515306)", "maxvolume": 0.0, "strategic": "Strategic", "sub_type": "Tank" }, "geometry": { "type": "Point", "coordinates": [ 145.317197925644564, -37.659248497045596 ] } },
{ "type": "Feature", "properties": { "id": 106, "address": null, "location": "HARKNESS M 330 F11 (845301)", "maxvolume": 0.0, "strategic": "Tactical", "sub_type": "Tank" }, "geometry": { "type": "Point", "coordinates": [ 144.557868999, -37.650193004 ] } },
{ "type": "Feature", "properties": { "id": 53, "address": "Millett  Road", "location": "175 MILLETT ROAD GISBORNE SOUTH M 697 D9 (913408)", "maxvolume": 22000.0, "strategic": "Tactical", "sub_type": "Fire Water Tank" }, "geometry": { "type": "Point", "coordinates": [ 144.63841504017725, -37.555320806968631 ] } },
{ "type": "Feature", "properties": { "id": 1009, "address": "Ridge Rd", "location": "RIDGE RD CHRISTMAS HILLS /ELTHAM - YARRA GLEN RD //MUIR RD M 265 H12 (515312)", "maxvolume": 22000.0, "strategic": "Tactical", "sub_type": "Fire Water Tank" }, "geometry": { "type": "Point", "coordinates": [ 145.317297091955254, -37.653851465348616 ] } },
{ "type": "Feature", "properties": { "id": 55, "address": "Chadds Creek Road", "location": "CNR CHADDS CREEK ROAD STRATHEWEN /BOWDEN SPUR ROAD //COTTLES BRIDGE - STRATHEWEN ROAD SV 8212 B14 (469429)", "maxvolume": 0.0, "strategic": "Tactical", "sub_type": "Fire Water Tank" }, "geometry": { "type": "Point", "coordinates": [ 145.267027600394783, -37.547928203553568 ] } },
{ "type": "Feature", "properties": { "id": 23, "address": null, "location": "STRATHEWEN SV 6449 G8 (465422)", "maxvolume": 0.0, "strategic": "Tactical", "sub_type": "Suction Point" }, "geometry": { "type": "Point", "coordinates": [ 145.262550886855792, -37.554276051126152 ] } },
{ "type": "Feature", "properties": { "id": 24, "address": null, "location": "STRATHEWEN SV 6449 G8 (465421)", "maxvolume": 0.0, "strategic": "Tactical", "sub_type": "Suction Point" }, "geometry": { "type": "Point", "coordinates": [ 145.262201157222819, -37.554449741014899 ] } },
{ "type": "Feature", "properties": { "id": 1010, "address": "Eltham - Yarra Glen Rd", "location": "ELTHAM - YARRA GLEN RD WATSONS CREEK /RIDGE RD M 272 D5 (463293)", "maxvolume": 130000.0, "strategic": "Strategic", "sub_type": "Fire Water Tank" }, "geometry": { "type": "Point", "coordinates": [ 145.257702700841662, -37.670497091283465 ] } },
{ "type": "Feature", "properties": { "id": 1011, "address": "Westering Rd", "location": "WESTERING RD CHRISTMAS HILLS /SUGARLOAF TRK //CALWELL RD M 272 G7 (475282)", "maxvolume": 22000.0, "strategic": "Tactical", "sub_type": "Fire Water Tank" }, "geometry": { "type": "Point", "coordinates": [ 145.271481222222974, -37.679860708776481 ] } },
{ "type": "Feature", "properties": { "id": 27, "address": "Mine Road", "location": "MINE ROAD NUTFIELD M 392 K11 (404364)", "maxvolume": 0.0, "strategic": "Tactical", "sub_type": "Hydrant" }, "geometry": { "type": "Point", "coordinates": [ 145.192481572011729, -37.605218143903699 ] } },
{ "type": "Feature", "properties": { "id": 28, "address": "Mine Road", "location": "MINE ROAD NUTFIELD M 392 J12 (403362)", "maxvolume": 0.0, "strategic": "Tactical", "sub_type": "Hydrant" }, "geometry": { "type": "Point", "coordinates": [ 145.191026088837361, -37.60709153469675 ] } },
{ "type": "Feature", "properties": { "id": 29, "address": "Mine Road", "location": "MINE ROAD NUTFIELD M 392 J12 (402361)", "maxvolume": 0.0, "strategic": "Tactical", "sub_type": "Hydrant" }, "geometry": { "type": "Point", "coordinates": [ 145.18982084174533, -37.607580272930676 ] } },
{ "type": "Feature", "properties": { "id": 1012, "address": "Simpson Rd", "location": "SIMPSON RD CHRISTMAS HILLS /ELTHAM - YARRA GLEN RD M 273 D8 (503282)", "maxvolume": 0.0, "strategic": "Tactical", "sub_type": "Hydrant" }, "geometry": { "type": "Point", "coordinates": [ 145.30284725749118, -37.680600493117751 ] } },
{ "type": "Feature", "properties": { "id": 64, "address": "Mittons Bridge Rd", "location": "190 MITTONS BRIDGE RD ST ANDREWS /HILDERBRANDRD M 394 G3 (472397)", "maxvolume": 10000.0, "strategic": "Tactical", "sub_type": "Tank" }, "geometry": { "type": "Point", "coordinates": [ 145.270459089798379, -37.576862190423135 ] } },
{ "type": "Feature", "properties": { "id": 65, "address": "Black Hill Road", "location": "439 BLACK HILL ROAD TOOLERN VALE /MT AITKEN ROAD SV 6444 A13 (903374)", "maxvolume": 0.0, "strategic": "Tactical", "sub_type": "Fire Water Tank" }, "geometry": { "type": "Point", "coordinates": [ 144.62570459249298, -37.58598142670143 ] } },
{ "type": "Feature", "properties": { "id": 66, "address": "Hurstbridge - Arthurs Creek Road", "location": "630 HURSTBRIDGE - ARTHURS CREEK ROAD NUTFIELD M 392 K9 (404372)", "maxvolume": 0.0, "strategic": "Tactical", "sub_type": "Hydrant" }, "geometry": { "type": "Point", "coordinates": [ 145.192902910599344, -37.597782675541239 ] } },
{ "type": "Feature", "properties": { "id": 67, "address": "Hurstbridge - Arthurs Creek Road", "location": "720 HURSTBRIDGE - ARTHURS CREEK ROAD ARTHURS CREEK M 393 A7 (410379)", "maxvolume": 0.0, "strategic": "Tactical", "sub_type": "Hydrant" }, "geometry": { "type": "Point", "coordinates": [ 145.200162058285457, -37.59140346573637 ] } },
{ "type": "Feature", "properties": { "id": 1013, "address": "Skyline Rd South", "location": "SKYLINE RD SOUTH CHRISTMAS HILLS /MUIR RD //ASHMORE RD M 274 A6 (527291)", "maxvolume": 80000.0, "strategic": "Tactical", "sub_type": "Fire Water Tank" }, "geometry": { "type": "Point", "coordinates": [ 145.330597762012303, -37.673023463959474 ] } },
{ "type": "Feature", "properties": { "id": 1014, "address": "Calwell Rd", "location": "CALWELL RD KANGAROO GROUND /HENLY RD //WESTERING RD M 272 E11 (467268)", "maxvolume": 0.0, "strategic": "Strategic", "sub_type": "Hydrant" }, "geometry": { "type": "Point", "coordinates": [ 145.261747703578408, -37.692374807910539 ] } },
{ "type": "Feature", "properties": { "id": 33, "address": "Smiths Gully Road", "location": "80 SMITHS GULLY ROAD SMITHS GULLY /SPANISH GULLY ROAD M 264 H4 (478345)", "maxvolume": 0.0, "strategic": "Strategic", "sub_type": "Dam" }, "geometry": { "type": "Point", "coordinates": [ 145.275738836750548, -37.623159242858584 ] } },
{ "type": "Feature", "properties": { "id": 1015, "address": "Skyline Rd South", "location": "SKYLINE RD SOUTH CHRISTMAS HILLS /HENLY RD //WENDY WAY M 273 C11 (499270)", "maxvolume": 22000.0, "strategic": "Tactical", "sub_type": "Fire Water Tank" }, "geometry": { "type": "Point", "coordinates": [ 145.297626861244851, -37.691883399421428 ] } },
{ "type": "Feature", "properties": { "id": 35, "address": "Yaralla Road", "location": "65 YARALLA ROAD PANTON HILL /KANGAROO GROUND - ST ANDREWS ROAD M 263 H11 (436314)", "maxvolume": 0.0, "strategic": "Strategic", "sub_type": "Dam" }, "geometry": { "type": "Point", "coordinates": [ 145.22805059291241, -37.650934096660301 ] } },
{ "type": "Feature", "properties": { "id": 73, "address": "WATTS LANE", "location": "WATTS LANE COTTLES BRIDGE M 393 K10 (445367)", "maxvolume": 0.0, "strategic": "Tactical", "sub_type": "Dam" }, "geometry": { "type": "Point", "coordinates": [ 145.239021968865444, -37.603011164120339 ] } },
{ "type": "Feature", "properties": { "id": 1016, "address": "DONNYBROOK RD", "location": "OPP 1845 DONNYBROOK RD WOODSTOCK /SELKIRK ROAD SV 6448 A9 (305418)", "maxvolume": 0.0, "strategic": "Tactical", "sub_type": "Hydrant" }, "geometry": { "type": "Point", "coordinates": [ 145.082108049505962, -37.554812205844719 ] } },
{ "type": "Feature", "properties": { "id": 1017, "address": "OLD PLENTY RD", "location": "40 OLD PLENTY RD YAN YEAN /ARTHURS CREEK RD M 390 K2 (328400)", "maxvolume": 22000.0, "strategic": "Strategic", "sub_type": "Fire Water Tank" }, "geometry": { "type": "Point", "coordinates": [ 145.107528074961522, -37.571608474813509 ] } },
{ "type": "Feature", "properties": { "id": 1018, "address": "GRANTS RD", "location": "640 GRANTS RD YAN YEAN /THOMSON PARK DR //FIFTH AV SV 6448 B6 (318447)", "maxvolume": 0.0, "strategic": "Strategic", "sub_type": "Dam" }, "geometry": { "type": "Point", "coordinates": [ 145.096603375055366, -37.528704466032778 ] } },
{ "type": "Feature", "properties": { "id": 39, "address": "Long Gully Road", "location": "350 LONG GULLY ROAD PANTON HILL /KANGAROO GROUND - ST ANDREWS ROAD M 264 C8 (457328)", "maxvolume": 0.0, "strategic": "Tactical", "sub_type": "Dam" }, "geometry": { "type": "Point", "coordinates": [ 145.251729687315247, -37.638696412048731 ] } },
{ "type": "Feature", "properties": { "id": 78, "address": null, "location": "NORTH WARRANDYTE M 23 E6 (428240)", "maxvolume": 0.0, "strategic": "Tactical", "sub_type": "Hydrant" }, "geometry": { "type": "Point", "coordinates": [ 145.217486972094008, -37.717686980539007 ] } },
{ "type": "Feature", "properties": { "id": 1019, "address": "School Ridge Rd", "location": "SCHOOL RIDGE RD STRATHEWEN /BOWDEN SPUR RD SV 8212 B14 (471428)", "maxvolume": 0.0, "strategic": "Tactical", "sub_type": "Tank" }, "geometry": { "type": "Point", "coordinates": [ 145.269322530166761, -37.548247639330171 ] } },
{ "type": "Feature", "properties": { "id": 1020, "address": "Hildebrand Rd", "location": "CNR HILDEBRAND RD COTTLES BRIDGE /COTTLES BRIDGE - STRATHEWEN RD //LOCKMANS LN M 393 E10 (425369)", "maxvolume": 22000.0, "strategic": "Tactical", "sub_type": "Fire Water Tank" }, "geometry": { "type": "Point", "coordinates": [ 145.216858966248964, -37.600990150656294 ] } },
{ "type": "Feature", "properties": { "id": 1021, "address": "Cottles Bridge - Strathewen Rd", "location": "CNR COTTLES BRIDGE - STRATHEWEN RD COTTLES BRIDGE /CHRISTIAN RD M 263 E4 (427346)", "maxvolume": 120000.0, "strategic": "Strategic", "sub_type": "Fire Water Tank" }, "geometry": { "type": "Point", "coordinates": [ 145.217590423021278, -37.621909979182938 ] } },
{ "type": "Feature", "properties": { "id": 43, "address": "Sprys Lane", "location": "SPRYS LANE HURSTBRIDGE M 263 A10 (410319)", "maxvolume": 0.0, "strategic": "Tactical", "sub_type": "Dam" }, "geometry": { "type": "Point", "coordinates": [ 145.198795876986452, -37.64558279178528 ] } },
{ "type": "Feature", "properties": { "id": 44, "address": "Knowle Grove", "location": "END KNOWLE GROVE HURSTBRIDGE M 185 H8 (400325)", "maxvolume": 0.0, "strategic": "Tactical", "sub_type": "Hydrant" }, "geometry": { "type": "Point", "coordinates": [ 145.186881068333008, -37.639858784508299 ] } },
{ "type": "Feature", "properties": { "id": 1022, "address": "Barreenong Rd", "location": "225 BARREENONG RD COTTLES BRIDGE /PATULLOS RD //DUNMOORCHIN RD M 263 B2 (412351)", "maxvolume": 0.0, "strategic": "Strategic", "sub_type": "Dam" }, "geometry": { "type": "Point", "coordinates": [ 145.201648730720507, -37.617357070947563 ] } },
{ "type": "Feature", "properties": { "id": 85, "address": "Stockdale Rd", "location": "STOCKDALE RD WALLAN SV 6362 E8 (146576)", "maxvolume": 20000.0, "strategic": "Tactical", "sub_type": "Fire Water Tank" }, "geometry": { "type": "Point", "coordinates": [ 144.906102521019193, -37.409779723601531 ] } },
{ "type": "Feature", "properties": { "id": 86, "address": "Old Sydney Rd", "location": "OLD SYDNEY RD WALLAN /BEAUVIEW DRIVE SV 6362 K4 (197612)", "maxvolume": 20000.0, "strategic": "Tactical", "sub_type": "Fire Water Tank" }, "geometry": { "type": "Point", "coordinates": [ 144.963783151395802, -37.3780692816824 ] } },
{ "type": "Feature", "properties": { "id": 87, "address": "Old Sydney Road", "location": "OLD SYDNEY ROAD BEVERIDGE /CAMERONS LANE SV 6362 G14 (165516)", "maxvolume": 20000.0, "strategic": "Tactical", "sub_type": "Fire Water Tank" }, "geometry": { "type": "Point", "coordinates": [ 144.92563714340568, -37.463411851227924 ] } },
{ "type": "Feature", "properties": { "id": 46, "address": "Greysharps Road", "location": "50 GREYSHARPS ROAD HURSTBRIDGE M 185 J9 (402325)", "maxvolume": 0.0, "strategic": "Tactical", "sub_type": "Hydrant" }, "geometry": { "type": "Point", "coordinates": [ 145.189811329140014, -37.640766886111109 ] } },
{ "type": "Feature", "properties": { "id": 89, "address": null, "location": "RESEARCH M 22 F1 (393257)", "maxvolume": 0.0, "strategic": "Tactical", "sub_type": "Hydrant" }, "geometry": { "type": "Point", "coordinates": [ 145.178075507365008, -37.701857660147105 ] } },
{ "type": "Feature", "properties": { "id": 90, "address": "Parsons Road", "location": "43986 PARSONS ROAD ELTHAM M 22 D1 (386256)", "maxvolume": 0.0, "strategic": "Tactical", "sub_type": "Hydrant" }, "geometry": { "type": "Point", "coordinates": [ 145.170219997156295, -37.701850238743305 ] } },
{ "type": "Feature", "properties": { "id": 1023, "address": "Cottles Bridge - Strathewen Rd", "location": "65 COTTLES BRIDGE - STRATHEWEN RD COTTLES BRIDGE /CHRISTIANS RD //BARRENONG RD M 263 D2 (422351)", "maxvolume": 0.0, "strategic": "Strategic", "sub_type": "Dam" }, "geometry": { "type": "Point", "coordinates": [ 145.212339755311092, -37.617537590959564 ] } },
{ "type": "Feature", "properties": { "id": 1024, "address": "Kangaroo Ground - St Andrews Road", "location": "KANGAROO GROUND - ST ANDREWS ROAD SMITHS GULLY /VARGA RD //GOLDMANS RD M 264 E4 (463345)", "maxvolume": 130000.0, "strategic": "Strategic", "sub_type": "Fire Water Tank" }, "geometry": { "type": "Point", "coordinates": [ 145.259112047755195, -37.623378810096888 ] } },
{ "type": "Feature", "properties": { "id": 1025, "address": "Goldmans", "location": "GOLDMANS COTTLES BRIDGE /BELLFIELDS RD //SKARDONS RD M 264 B2 (451355)", "maxvolume": 130000.0, "strategic": "Strategic", "sub_type": "Fire Water Tank" }, "geometry": { "type": "Point", "coordinates": [ 145.245521840339848, -37.614319630859178 ] } },
{ "type": "Feature", "properties": { "id": 94, "address": null, "location": "KANGAROO GROUND M 271 E10 (426269)", "maxvolume": 0.0, "strategic": "Tactical", "sub_type": "Hydrant" }, "geometry": { "type": "Point", "coordinates": [ 145.214850737743006, -37.690931770154684 ] } },
{ "type": "Feature", "properties": { "id": 95, "address": null, "location": "KANGAROO GROUND M 271 E11 (426269)", "maxvolume": 0.0, "strategic": "Tactical", "sub_type": "Hydrant" }, "geometry": { "type": "Point", "coordinates": [ 145.215275036193987, -37.691369261632893 ] } },
{ "type": "Feature", "properties": { "id": 96, "address": null, "location": "KANGAROO GROUND M 271 E11 (426269)", "maxvolume": 0.0, "strategic": "Tactical", "sub_type": "Hydrant BP" }, "geometry": { "type": "Point", "coordinates": [ 145.215531092537702, -37.691334453335195 ] } },
{ "type": "Feature", "properties": { "id": 97, "address": null, "location": "KANGAROO GROUND M 271 D11 (425269)", "maxvolume": 0.0, "strategic": "Tactical", "sub_type": "Hydrant" }, "geometry": { "type": "Point", "coordinates": [ 145.214563902579954, -37.691268367681054 ] } },
{ "type": "Feature", "properties": { "id": 1026, "address": "Kangaroo Ground - St Andrews Road", "location": "CNR KANGAROO GROUND - ST ANDREWS ROAD PANTON HILL /RODGER RD //BISHOPS RD M 263 K9 (446323)", "maxvolume": 35000.0, "strategic": "Tactical", "sub_type": "Fire Water Tank" }, "geometry": { "type": "Point", "coordinates": [ 145.239112401136651, -37.642511718869756 ] } },
{ "type": "Feature", "properties": { "id": 99, "address": "Clonbinane Road", "location": "CLONBINANE ROAD CLONBINANE /DRAG HILL RD SV 6279 J12 (286683)", "maxvolume": 20000.0, "strategic": "Tactical", "sub_type": "Fire Water Tank" }, "geometry": { "type": "Point", "coordinates": [ 145.065832056896966, -37.316118882700081 ] } },
{ "type": "Feature", "properties": { "id": 100, "address": "Clonbinane Road", "location": "CLONBINANE ROAD CLONBINANE /DRAG HILL RD SV 6279 J12 (286683)", "maxvolume": 20000.0, "strategic": "Tactical", "sub_type": "Fire Water Tank" }, "geometry": { "type": "Point", "coordinates": [ 145.065873384970075, -37.316145485809841 ] } },
{ "type": "Feature", "properties": { "id": 101, "address": "Spur Rd", "location": "SPUR RD CLONBINANE /BROADFORD - WANDONG ROAD SV 6279 H9 (278715)", "maxvolume": 20000.0, "strategic": "Strategic", "sub_type": "Fire Water Tank" }, "geometry": { "type": "Point", "coordinates": [ 145.058282599657701, -37.28708402214675 ] } },
{ "type": "Feature", "properties": { "id": 102, "address": "KOOS ROAD", "location": "KOOS ROAD KANGAROO GROUND /KINGS RD M 271 H4 (439296)", "maxvolume": 0.0, "strategic": "Tactical", "sub_type": "Dam" }, "geometry": { "type": "Point", "coordinates": [ 145.231144950610627, -37.666688205961997 ] } },
{ "type": "Feature", "properties": { "id": 1027, "address": "Kangaroo Ground - St Andrews Road", "location": "CNR KANGAROO GROUND - ST ANDREWS ROAD PANTON HILL /LONG GULLY RD //BAKEHOUSE RD M 264 A8 (451329)", "maxvolume": 0.0, "strategic": "Strategic", "sub_type": "Hydrant" }, "geometry": { "type": "Point", "coordinates": [ 145.24440027416702, -37.637455017431421 ] } },
{ "type": "Feature", "properties": { "id": 1028, "address": "Kangaroo Ground - St Andrews Road", "location": "KANGAROO GROUND - ST ANDREWS ROAD PANTON HILL /LONG GULLY RD //BAKEHOUSE RD M 264 A8 (450328)", "maxvolume": 0.0, "strategic": "Strategic", "sub_type": "Hydrant" }, "geometry": { "type": "Point", "coordinates": [ 145.243394493035254, -37.638341713371162 ] } },
{ "type": "Feature", "properties": { "id": 53, "address": "Millett  Road", "location": "175 MILLETT ROAD GISBORNE SOUTH M 697 D9 (913408)", "maxvolume": 22000.0, "strategic": "Tactical", "sub_type": "Fire Water Tank" }, "geometry": { "type": "Point", "coordinates": [ 144.63841504017725, -37.555320806968631 ] } },
{ "type": "Feature", "properties": { "id": 106, "address": null, "location": "HARKNESS M 330 F11 (845301)", "maxvolume": 0.0, "strategic": "Tactical", "sub_type": "Tank" }, "geometry": { "type": "Point", "coordinates": [ 144.557868999, -37.650193004 ] } },
{ "type": "Feature", "properties": { "id": 1029, "address": "Long Gully Rd", "location": "LONG GULLY RD PANTON HILL /MOTSCHALLS RD //TURNUNG RD M 264 E9 (464326)", "maxvolume": 130000.0, "strategic": "Strategic", "sub_type": "Fire Water Tank" }, "geometry": { "type": "Point", "coordinates": [ 145.260067462571953, -37.640755061837631 ] } },
{ "type": "Feature", "properties": { "id": 55, "address": "Chadds Creek Road", "location": "CNR CHADDS CREEK ROAD STRATHEWEN /BOWDEN SPUR ROAD //COTTLES BRIDGE - STRATHEWEN ROAD SV 8212 B14 (469429)", "maxvolume": 0.0, "strategic": "Tactical", "sub_type": "Fire Water Tank" }, "geometry": { "type": "Point", "coordinates": [ 145.267027600394783, -37.547928203553568 ] } },
{ "type": "Feature", "properties": { "id": 1030, "address": "Bellfields Rd", "location": "CNR BELLFIELDS RD COTTLES BRIDGE /RED SHIRT GULLY RD //SHEPARDS FLAT RD M 263 H3 (437347)", "maxvolume": 130000.0, "strategic": "Strategic", "sub_type": "Fire Water Tank" }, "geometry": { "type": "Point", "coordinates": [ 145.229178587993118, -37.620677368119857 ] } },
{ "type": "Feature", "properties": { "id": 110, "address": null, "location": "KALKALLO M 367 E5 (189432)", "maxvolume": 35000.0, "strategic": "Tactical", "sub_type": "Fire Water Tank" }, "geometry": { "type": "Point", "coordinates": [ 144.95117265693986, -37.540268331127429 ] } },
{ "type": "Feature", "properties": { "id": 111, "address": null, "location": "KALKALLO M 367 E5 (189432)", "maxvolume": 35000.0, "strategic": "Tactical", "sub_type": "Fire Water Tank" }, "geometry": { "type": "Point", "coordinates": [ 144.951163691143819, -37.540317692825852 ] } },
{ "type": "Feature", "properties": { "id": 112, "address": "Brookville Dr", "location": "BROOKVILLE DR CRAIGIEBURN /KINLOCH COURT M 367 D10 (188413)", "maxvolume": 35000.0, "strategic": "Tactical", "sub_type": "Fire Water Tank" }, "geometry": { "type": "Point", "coordinates": [ 144.948922250556421, -37.557186396638308 ] } },
{ "type": "Feature", "properties": { "id": 113, "address": "Donnybrook Road", "location": "670 DONNYBROOK ROAD CRAIGIEBURN /DWYER STREET M 367 F6 (192430)", "maxvolume": 35000.0, "strategic": "Tactical", "sub_type": "Fire Water Tank" }, "geometry": { "type": "Point", "coordinates": [ 144.954127869824219, -37.541806330562878 ] } },
{ "type": "Feature", "properties": { "id": 114, "address": "Donna Buang Road", "location": "DONNA BUANG ROAD HEALESVILLE SV 6536 H10 (775259)", "maxvolume": 22500.0, "strategic": "Tactical", "sub_type": "Fire Water Tank" }, "geometry": { "type": "Point", "coordinates": [ 145.611124582862885, -37.705895811345314 ] } },
{ "type": "Feature", "properties": { "id": 115, "address": "Capstone Drive", "location": "115W CAPSTONE DRIVE WHITTLESEA /HALLS ROAD SV 6364 C13 (324528)", "maxvolume": 22000.0, "strategic": "Tactical", "sub_type": "Fire Water Tank" }, "geometry": { "type": "Point", "coordinates": [ 145.105140057356891, -37.456105775342834 ] } },
{ "type": "Feature", "properties": { "id": 1031, "address": "Springhill Rd", "location": "CNR SPRINGHILL RD HURSTBRIDGE /KENDALLS LANE //HALEYS GULLY ROAD M 185 F7 (391329)", "maxvolume": 130000.0, "strategic": "Strategic", "sub_type": "Fire Water Tank" }, "geometry": { "type": "Point", "coordinates": [ 145.177148959116153, -37.636098933553654 ] } },
{ "type": "Feature", "properties": { "id": 1032, "address": "Graysharps Rd", "location": "END GRAYSHARPS RD HURSTBRIDGE /HURSTBRIDGE - ARTHURS CREEK RD M 185 J9 (401322)", "maxvolume": 5000000.0, "strategic": "Strategic", "sub_type": "Dam" }, "geometry": { "type": "Point", "coordinates": [ 145.188441618305973, -37.642670966622688 ] } },
{ "type": "Feature", "properties": { "id": 1033, "address": "Main Rd", "location": "MAIN RD HURSTBRIDGE /MELISSA CLS //ANZAC AVE M 263 A7 (409331)", "maxvolume": 225000.0, "strategic": "Strategic", "sub_type": "Tank" }, "geometry": { "type": "Point", "coordinates": [ 145.197339065094724, -37.634651848093732 ] } },
{ "type": "Feature", "properties": { "id": 1034, "address": "Hurstbridge - Arthurs Creek Road", "location": "205 HURSTBRIDGE - ARTHURS CREEK ROAD HURSTBRIDGE /PATULLOS RD //BOYD RD M 185 J3 (404346)", "maxvolume": 130000.0, "strategic": "Strategic", "sub_type": "Fire Water Tank" }, "geometry": { "type": "Point", "coordinates": [ 145.192282957742719, -37.621634936187782 ] } },
{ "type": "Feature", "properties": { "id": 120, "address": "Macgregor Rd", "location": "50 MACGREGOR RD BEVERIDGE /CAMERON RISE SV 6363 G13 (264523)", "maxvolume": 0.0, "strategic": "Tactical", "sub_type": "Dam" }, "geometry": { "type": "Point", "coordinates": [ 145.037732303545567, -37.4597354743509 ] } },
{ "type": "Feature", "properties": { "id": 1035, "address": "Christian Rd", "location": "225 CHRISTIAN RD COTTLES BRIDGE /COTTLES BRIDGE - STRATHEWEN RD M 263 A6 (409335)", "maxvolume": 0.0, "strategic": "Strategic", "sub_type": "Dam" }, "geometry": { "type": "Point", "coordinates": [ 145.197210451266869, -37.63130350018487 ] } },
{ "type": "Feature", "properties": { "id": 122, "address": "580 Ridge Road", "location": null, "maxvolume": null, "strategic": "Tactical", "sub_type": "Tank" }, "geometry": { "type": "Point", "coordinates": [ 145.308846376340682, -37.664015493278633 ] } },
{ "type": "Feature", "properties": { "id": 123, "address": "Seventeenth Av", "location": "170 SEVENTEENTH AV EDEN PARK /TWELFTH AV SV 6363 J14 (286513)", "maxvolume": 0.0, "strategic": "Tactical", "sub_type": "Dam" }, "geometry": { "type": "Point", "coordinates": [ 145.062228640139665, -37.468574050452048 ] } },
{ "type": "Feature", "properties": { "id": 124, "address": "Wallan Rd", "location": "925 WALLAN RD EDEN PARK /PLENTY VALLEY RISE SV 6363 J13 (288529)", "maxvolume": 0.0, "strategic": "Tactical", "sub_type": "Dam" }, "geometry": { "type": "Point", "coordinates": [ 145.065148557160228, -37.454135774046676 ] } },
{ "type": "Feature", "properties": { "id": 125, "address": "Wallan Road", "location": "CNR WALLAN ROAD EDEN PARK /PLENTY VALLEY RISE SV 6363 K13 (293527)", "maxvolume": 22000.0, "strategic": "Tactical", "sub_type": "Fire Water Tank" }, "geometry": { "type": "Point", "coordinates": [ 145.070380126350102, -37.456261832590727 ] } },
{ "type": "Feature", "properties": { "id": 1036, "address": "Laceys Rd", "location": "10 LACEYS RD COTTLES BRIDGE /HEIDELBERG - KINGLAKE RD //CHURCH RD M 263 D6 (423337)", "maxvolume": 10000.0, "strategic": "Tactical", "sub_type": "Tank" }, "geometry": { "type": "Point", "coordinates": [ 145.213723257714832, -37.630265963105579 ] } },
{ "type": "Feature", "properties": { "id": 127, "address": "Stewart St", "location": "STEWART ST BEVERIDGE M 686 C2 (218508)", "maxvolume": 20000.0, "strategic": "Tactical", "sub_type": "Fire Water Tank" }, "geometry": { "type": "Point", "coordinates": [ 144.985024281054734, -37.472120845276294 ] } },
{ "type": "Feature", "properties": { "id": 1037, "address": "DONNYBROOK RD", "location": "1391 DONNYBROOK RD WOODSTOCK /MERRIANG RD //EPPING RD SV 6447 G8 (263424)", "maxvolume": 22000.0, "strategic": "Tactical", "sub_type": "Tank" }, "geometry": { "type": "Point", "coordinates": [ 145.033706344181581, -37.548674844159109 ] } },
{ "type": "Feature", "properties": { "id": 1038, "address": "DONNYBROOK RD", "location": "1391 DONNYBROOK RD WOODSTOCK /MERRIANG RD //EPPING RD SV 6447 G8 (262424)", "maxvolume": 22000.0, "strategic": "Tactical", "sub_type": "Tank" }, "geometry": { "type": "Point", "coordinates": [ 145.033595230391683, -37.548655303956359 ] } },
{ "type": "Feature", "properties": { "id": 130, "address": "Extons Road", "location": "359 EXTONS ROAD KINGLAKE CENTRAL /CAPTAINS CREEK ROAD SV 6366 B15 (519507)", "maxvolume": 25000.0, "strategic": "Tactical", "sub_type": "Fire Water Tank" }, "geometry": { "type": "Point", "coordinates": [ 145.325675843101664, -37.478166055523765 ] } },
{ "type": "Feature", "properties": { "id": 131, "address": "Bald Spur Road", "location": "CNR BALD SPUR ROAD KINGLAKE CENTRAL /WHITTLESEA - KINGLAKE RD M 380 D6 (518457)", "maxvolume": 45000.0, "strategic": "Tactical", "sub_type": "Fire Water Tank" }, "geometry": { "type": "Point", "coordinates": [ 145.323067260772632, -37.523264267273539 ] } },
{ "type": "Feature", "properties": { "id": 132, "address": null, "location": "KINGLAKE CENTRAL SV 6450 A3 (501472)", "maxvolume": 22000.0, "strategic": "Tactical", "sub_type": "Fire Water Tank" }, "geometry": { "type": "Point", "coordinates": [ 145.304236153571225, -37.509143798220755 ] } },
{ "type": "Feature", "properties": { "id": 133, "address": "Whittlesea - Kinglake Rd", "location": "436 WHITTLESEA - KINGLAKE RD KINGLAKE CENTRAL /EXTONS ROAD M 380 B1 (510475)", "maxvolume": 80000.0, "strategic": "Strategic", "sub_type": "Fire Water Tank" }, "geometry": { "type": "Point", "coordinates": [ 145.315099826743108, -37.507155363489652 ] } },
{ "type": "Feature", "properties": { "id": 134, "address": "Whittlesea - Kinglake Rd", "location": "436 WHITTLESEA - KINGLAKE RD KINGLAKE CENTRAL /EXTONS ROAD M 380 B1 (510475)", "maxvolume": 80000.0, "strategic": "Strategic", "sub_type": "Fire Water Tank" }, "geometry": { "type": "Point", "coordinates": [ 145.315058727903619, -37.507227256683471 ] } },
{ "type": "Feature", "properties": { "id": 135, "address": "Extons Road", "location": "1 EXTONS ROAD KINGLAKE CENTRAL /WHITTLESEA - KINGLAKE RD M 380 B2 (510474)", "maxvolume": 225000.0, "strategic": "Strategic", "sub_type": "Fire Water Tank" }, "geometry": { "type": "Point", "coordinates": [ 145.315249083000026, -37.508221798000022 ] } },
{ "type": "Feature", "properties": { "id": 136, "address": "Extons Road", "location": "1 EXTONS ROAD KINGLAKE CENTRAL /WHITTLESEA - KINGLAKE RD M 380 B2 (510474)", "maxvolume": 27500.0, "strategic": "Tactical", "sub_type": "Fire Water Tank" }, "geometry": { "type": "Point", "coordinates": [ 145.315160321928886, -37.508193042290223 ] } },
{ "type": "Feature", "properties": { "id": 137, "address": "Extons Road", "location": "2 EXTONS ROAD KINGLAKE CENTRAL /WHITTLESEA - KINGLAKE RD M 380 C2 (511471)", "maxvolume": 22000.0, "strategic": "Tactical", "sub_type": "Tank" }, "geometry": { "type": "Point", "coordinates": [ 145.316251771420298, -37.510183184471778 ] } },
{ "type": "Feature", "properties": { "id": 138, "address": "Extons Road", "location": "2 EXTONS ROAD KINGLAKE CENTRAL /WHITTLESEA - KINGLAKE RD M 380 C2 (511471)", "maxvolume": 22000.0, "strategic": "Tactical", "sub_type": "Tank" }, "geometry": { "type": "Point", "coordinates": [ 145.316227396756204, -37.510212195996736 ] } },
{ "type": "Feature", "properties": { "id": 139, "address": "Pinchgut Lane", "location": "CNR PINCHGUT LANE KINGLAKE /HEIDELBERG - KINGLAKE ROAD M 380 E12 (533442)", "maxvolume": 22000.0, "strategic": "Tactical", "sub_type": "Fire Water Tank" }, "geometry": { "type": "Point", "coordinates": [ 145.339992887210457, -37.537396121436274 ] } },
{ "type": "Feature", "properties": { "id": 140, "address": "Pinchgut Lane", "location": "CNR PINCHGUT LANE KINGLAKE /HEIDELBERG - KINGLAKE ROAD M 380 E12 (533442)", "maxvolume": 45000.0, "strategic": "Tactical", "sub_type": "Fire Water Tank" }, "geometry": { "type": "Point", "coordinates": [ 145.339996703087536, -37.537452703311963 ] } },
{ "type": "Feature", "properties": { "id": 141, "address": null, "location": "KINGLAKE M 380 H11 (543443)", "maxvolume": 22000.0, "strategic": "Tactical", "sub_type": "Fire Water Tank" }, "geometry": { "type": "Point", "coordinates": [ 145.351492751863049, -37.536386366974547 ] } },
{ "type": "Feature", "properties": { "id": 142, "address": "Mountain Home Road", "location": "CNR MOUNTAIN HOME ROAD KINGLAKE /HEALSVILLE - KINGLAKE ROAD M 380 J11 (549445)", "maxvolume": 22000.0, "strategic": "Tactical", "sub_type": "Fire Water Tank" }, "geometry": { "type": "Point", "coordinates": [ 145.357850895309923, -37.534806666939204 ] } },
{ "type": "Feature", "properties": { "id": 143, "address": "Mountain Home rd", "location": "CNR MOUNTAIN HOME RD KINGLAKE /HEALSEVILLE - KINGLAKE ROAD M 380 J11 (548445)", "maxvolume": 22000.0, "strategic": "Tactical", "sub_type": "Fire Water Tank" }, "geometry": { "type": "Point", "coordinates": [ 145.357688859159623, -37.534807076791118 ] } },
{ "type": "Feature", "properties": { "id": 144, "address": "Lawrey Rd", "location": "1 LAWREY RD KINGLAKE /ROYAL CRESENT M 380 G9 (541455)", "maxvolume": 22000.0, "strategic": "Tactical", "sub_type": "Fire Water Tank" }, "geometry": { "type": "Point", "coordinates": [ 145.349232345796736, -37.525908044972752 ] } },
{ "type": "Feature", "properties": { "id": 145, "address": "Morris Court", "location": "1 MORRIS COURT KINGLAKE /ELVIN DRIVE M 380 E8 (532457)", "maxvolume": 0.0, "strategic": "Strategic", "sub_type": "Suction Point" }, "geometry": { "type": "Point", "coordinates": [ 145.33889214287197, -37.523595814756057 ] } },
{ "type": "Feature", "properties": { "id": 146, "address": "Goodall Street", "location": "20 GOODALL STREET KINGLAKE /MCMAHONS ROAD M 380 J7 (547459)", "maxvolume": 80000.0, "strategic": "Strategic", "sub_type": "Fire Water Tank" }, "geometry": { "type": "Point", "coordinates": [ 145.356450713999948, -37.521806502999979 ] } },
{ "type": "Feature", "properties": { "id": 147, "address": "Goodall Street", "location": "20 GOODALL STREET KINGLAKE /MCMAHONS ROAD M 380 J7 (547459)", "maxvolume": 80000.0, "strategic": "Strategic", "sub_type": "Fire Water Tank" }, "geometry": { "type": "Point", "coordinates": [ 145.35654424400002, -37.521806503 ] } },
{ "type": "Feature", "properties": { "id": 148, "address": "McMahons Road", "location": "6 MCMAHONS ROAD KINGLAKE /KINGLAKE - GLENBURN ROAD M 380 H8 (545459)", "maxvolume": 22000.0, "strategic": "Tactical", "sub_type": "Fire Water Tank" }, "geometry": { "type": "Point", "coordinates": [ 145.353569369880944, -37.522202481027939 ] } },
{ "type": "Feature", "properties": { "id": 149, "address": "Humevale Road", "location": "CNR HUMEVALE ROAD HUMEVALE /WHITTLESEA - YEA ROAD SV 6449 C1 (429495)", "maxvolume": 22000.0, "strategic": "Tactical", "sub_type": "Fire Water Tank" }, "geometry": { "type": "Point", "coordinates": [ 145.224114135595386, -37.487306371997533 ] } },
{ "type": "Feature", "properties": { "id": 150, "address": "Humevale Road", "location": "CNR HUMEVALE ROAD HUMEVALE /WHITTLESEA - YEA ROAD SV 6449 D1 (430495)", "maxvolume": 22000.0, "strategic": "Tactical", "sub_type": "Fire Water Tank" }, "geometry": { "type": "Point", "coordinates": [ 145.224171029181235, -37.487263268370562 ] } },
{ "type": "Feature", "properties": { "id": 151, "address": null, "location": "CLONBINANE SV 6365 C11 (420540)", "maxvolume": 0.0, "strategic": "Tactical", "sub_type": "Hydrant" }, "geometry": { "type": "Point", "coordinates": [ 145.213949564297025, -37.447170301058343 ] } },
{ "type": "Feature", "properties": { "id": 152, "address": "Road 22", "location": "ROAD 22 CLONBINANE /WHITTLESEA - YEA ROAD SV 6365 F9 (451562)", "maxvolume": 0.0, "strategic": "Strategic", "sub_type": "Water Course" }, "geometry": { "type": "Point", "coordinates": [ 145.250063805344553, -37.427278809840523 ] } },
{ "type": "Feature", "properties": { "id": 64, "address": "Mittons Bridge Rd", "location": "190 MITTONS BRIDGE RD ST ANDREWS /HILDERBRANDRD M 394 G3 (472397)", "maxvolume": 10000.0, "strategic": "Tactical", "sub_type": "Tank" }, "geometry": { "type": "Point", "coordinates": [ 145.270459089798379, -37.576862190423135 ] } },
{ "type": "Feature", "properties": { "id": 154, "address": null, "location": "RESEARCH M 22 G2 (398256)", "maxvolume": 0.0, "strategic": "Tactical", "sub_type": "Hydrant" }, "geometry": { "type": "Point", "coordinates": [ 145.183711088376924, -37.702788387583354 ] } },
{ "type": "Feature", "properties": { "id": 155, "address": null, "location": "RESEARCH M 22 G2 (398254)", "maxvolume": 0.0, "strategic": "Tactical", "sub_type": "Hydrant" }, "geometry": { "type": "Point", "coordinates": [ 145.182786221625491, -37.703765964876993 ] } },
{ "type": "Feature", "properties": { "id": 156, "address": null, "location": "RESEARCH M 22 G2 (396255)", "maxvolume": 0.0, "strategic": "Tactical", "sub_type": "Hydrant" }, "geometry": { "type": "Point", "coordinates": [ 145.181411920622082, -37.703412510066876 ] } },
{ "type": "Feature", "properties": { "id": 65, "address": "Black Hill Road", "location": "439 BLACK HILL ROAD TOOLERN VALE /MT AITKEN ROAD SV 6444 A13 (903374)", "maxvolume": 0.0, "strategic": "Tactical", "sub_type": "Fire Water Tank" }, "geometry": { "type": "Point", "coordinates": [ 144.62570459249298, -37.58598142670143 ] } },
{ "type": "Feature", "properties": { "id": 158, "address": null, "location": "RESEARCH M 22 H1 (401259)", "maxvolume": 0.0, "strategic": "Tactical", "sub_type": "Hydrant" }, "geometry": { "type": "Point", "coordinates": [ 145.186837448463706, -37.699502490712057 ] } },
{ "type": "Feature", "properties": { "id": 159, "address": null, "location": "RESEARCH M 22 H1 (401259)", "maxvolume": 0.0, "strategic": "Tactical", "sub_type": "Hydrant" }, "geometry": { "type": "Point", "coordinates": [ 145.186453414067898, -37.69990213255258 ] } },
{ "type": "Feature", "properties": { "id": 160, "address": null, "location": "RESEARCH M 22 H1 (400259)", "maxvolume": 0.0, "strategic": "Private", "sub_type": "Hydrant" }, "geometry": { "type": "Point", "coordinates": [ 145.185931202741813, -37.699921133847688 ] } },
{ "type": "Feature", "properties": { "id": 161, "address": null, "location": "RESEARCH M 22 J1 (406258)", "maxvolume": 0.0, "strategic": "Tactical", "sub_type": "Hydrant" }, "geometry": { "type": "Point", "coordinates": [ 145.192382516372504, -37.70095750950442 ] } },
{ "type": "Feature", "properties": { "id": 162, "address": null, "location": "RESEARCH M 22 J1 (405258)", "maxvolume": 0.0, "strategic": "Tactical", "sub_type": "Hydrant" }, "geometry": { "type": "Point", "coordinates": [ 145.191508591938089, -37.70098015373005 ] } },
{ "type": "Feature", "properties": { "id": 163, "address": null, "location": "RESEARCH M 22 J1 (405259)", "maxvolume": 0.0, "strategic": "Tactical", "sub_type": "Hydrant" }, "geometry": { "type": "Point", "coordinates": [ 145.191777516501304, -37.700182191962675 ] } },
{ "type": "Feature", "properties": { "id": 66, "address": "Hurstbridge - Arthurs Creek Road", "location": "630 HURSTBRIDGE - ARTHURS CREEK ROAD NUTFIELD M 392 K9 (404372)", "maxvolume": 0.0, "strategic": "Tactical", "sub_type": "Hydrant" }, "geometry": { "type": "Point", "coordinates": [ 145.192902910599344, -37.597782675541239 ] } },
{ "type": "Feature", "properties": { "id": 165, "address": null, "location": "RESEARCH M 22 K1 (407258)", "maxvolume": 0.0, "strategic": "Tactical", "sub_type": "Hydrant" }, "geometry": { "type": "Point", "coordinates": [ 145.193174885119589, -37.701023730915843 ] } },
{ "type": "Feature", "properties": { "id": 166, "address": null, "location": "RESEARCH M 22 K1 (407258)", "maxvolume": 0.0, "strategic": "Tactical", "sub_type": "Hydrant" }, "geometry": { "type": "Point", "coordinates": [ 145.194091539869589, -37.701109875606775 ] } },
{ "type": "Feature", "properties": { "id": 167, "address": null, "location": "RESEARCH M 22 K1 (407258)", "maxvolume": 0.0, "strategic": "Tactical", "sub_type": "Hydrant" }, "geometry": { "type": "Point", "coordinates": [ 145.194097035246699, -37.700416018855776 ] } },
{ "type": "Feature", "properties": { "id": 168, "address": null, "location": "RESEARCH M 22 K1 (407259)", "maxvolume": 0.0, "strategic": "Tactical", "sub_type": "Hydrant" }, "geometry": { "type": "Point", "coordinates": [ 145.193351774367187, -37.700278427948334 ] } },
{ "type": "Feature", "properties": { "id": 169, "address": null, "location": "RESEARCH M 22 K1 (406258)", "maxvolume": 0.0, "strategic": "Tactical", "sub_type": "Hydrant" }, "geometry": { "type": "Point", "coordinates": [ 145.192838711436792, -37.700387722264274 ] } },
{ "type": "Feature", "properties": { "id": 170, "address": null, "location": "RESEARCH M 22 K1 (406259)", "maxvolume": 0.0, "strategic": "Tactical", "sub_type": "Hydrant BP" }, "geometry": { "type": "Point", "coordinates": [ 145.192905465416686, -37.699974183547553 ] } },
{ "type": "Feature", "properties": { "id": 67, "address": "Hurstbridge - Arthurs Creek Road", "location": "720 HURSTBRIDGE - ARTHURS CREEK ROAD ARTHURS CREEK M 393 A7 (410379)", "maxvolume": 0.0, "strategic": "Tactical", "sub_type": "Hydrant" }, "geometry": { "type": "Point", "coordinates": [ 145.200162058285457, -37.59140346573637 ] } },
{ "type": "Feature", "properties": { "id": 1039, "address": "Chads Creek Rd", "location": "CNR CHADS CREEK RD STRATHEWEN /COTTLES BRIDGE -STRATHEWEN ROAD SV 8212 B14 (469429)", "maxvolume": 44000.0, "strategic": "Tactical", "sub_type": "Fire Water Tank" }, "geometry": { "type": "Point", "coordinates": [ 145.267033053251055, -37.547824299955465 ] } },
{ "type": "Feature", "properties": { "id": 1040, "address": "Cottles Bridge - Strathewen Rd", "location": "1100 COTTLES BRIDGE - STRATHEWEN RD STRATHEWEN /SCHOOL RIDGE RD //HEWITTS RD SV 6449 G8 (464421)", "maxvolume": 0.0, "strategic": "Tactical", "sub_type": "Hydrant" }, "geometry": { "type": "Point", "coordinates": [ 145.26167965049126, -37.554549031768978 ] } },
{ "type": "Feature", "properties": { "id": 174, "address": null, "location": "RESEARCH M 22 H1 (402260)", "maxvolume": 0.0, "strategic": "Tactical", "sub_type": "Hydrant" }, "geometry": { "type": "Point", "coordinates": [ 145.187500979046405, -37.699269365243367 ] } },
{ "type": "Feature", "properties": { "id": 1041, "address": "Cottles Bridge - Strathewen Road", "location": "880 COTTLES BRIDGE - STRATHEWEN ROAD ARTHURS CREEK /HEWITTS RD //EAGLES NEST RD M 393 F3 (454407)", "maxvolume": 0.0, "strategic": "Strategic", "sub_type": "Dam" }, "geometry": { "type": "Point", "coordinates": [ 145.247675470991197, -37.568273839399581 ] } },
{ "type": "Feature", "properties": { "id": 1042, "address": "Mullers Rd", "location": "60 MULLERS RD ST ANDREWS /HEIDELBERG - KINGLAKE RD M 394 K2 (484401)", "maxvolume": 0.0, "strategic": "Strategic", "sub_type": "Dam" }, "geometry": { "type": "Point", "coordinates": [ 145.284166219606647, -37.573379557843765 ] } },
{ "type": "Feature", "properties": { "id": 1043, "address": "Jacksons Road", "location": "290 JACKSONS ROAD ST ANDREWS /BALD SPUR RD //MITTONS BRIDGE RD SV 6449 J9 (486411)", "maxvolume": 0.0, "strategic": "Strategic", "sub_type": "Dam" }, "geometry": { "type": "Point", "coordinates": [ 145.286555276409786, -37.564491875393855 ] } },
{ "type": "Feature", "properties": { "id": 73, "address": "WATTS LANE", "location": "WATTS LANE COTTLES BRIDGE M 393 K10 (445367)", "maxvolume": 0.0, "strategic": "Tactical", "sub_type": "Dam" }, "geometry": { "type": "Point", "coordinates": [ 145.239021968865444, -37.603011164120339 ] } },
{ "type": "Feature", "properties": { "id": 1044, "address": "Jacksons Road", "location": "JACKSONS ROAD ST ANDREWS /BALD SPUR RD SV 6449 J9 (486415)", "maxvolume": 130000.0, "strategic": "Strategic", "sub_type": "Fire Water Tank" }, "geometry": { "type": "Point", "coordinates": [ 145.286560708356745, -37.560301129383852 ] } },
{ "type": "Feature", "properties": { "id": 1045, "address": "Bald Spur Road", "location": "BALD SPUR ROAD ST ANDREWS /RANKINE RD //WHITTLESEA - KINGLAKE RD SV 6449 K9 (497416)", "maxvolume": 44000.0, "strategic": "Tactical", "sub_type": "Fire Water Tank" }, "geometry": { "type": "Point", "coordinates": [ 145.299253804020822, -37.559718642903853 ] } },
{ "type": "Feature", "properties": { "id": 181, "address": null, "location": "WHITTLESEA SV 6364 G15 (367508)", "maxvolume": 0.0, "strategic": "Strategic", "sub_type": "Dam" }, "geometry": { "type": "Point", "coordinates": [ 145.153256719734145, -37.474744813832544 ] } },
{ "type": "Feature", "properties": { "id": 182, "address": "Lorimer Rd", "location": "105 LORIMER LANE DIXONS CREEK / MELBA HIGHWAY SV 6450 K14 (591364)", "maxvolume": 0.0, "strategic": "Strategic", "sub_type": "Dam" }, "geometry": { "type": "Point", "coordinates": [ 145.404243086050627, -37.607881516776047 ] } },
{ "type": "Feature", "properties": { "id": 183, "address": "Melba Hwy", "location": "1568 MELBA HWY DIXONS CREEK /WILLIS ROAD M 267 K1 (603360)", "maxvolume": 0.0, "strategic": "Strategic", "sub_type": "Dam" }, "geometry": { "type": "Point", "coordinates": [ 145.417250146333771, -37.611988441890425 ] } },
{ "type": "Feature", "properties": { "id": 184, "address": "Melba Hwy", "location": "1670 MELBA HWY DIXONS CREEK /PINNACLE LANE SV 6451 A14 (605369)", "maxvolume": 0.0, "strategic": "Strategic", "sub_type": "Dam" }, "geometry": { "type": "Point", "coordinates": [ 145.419916464953474, -37.604282716693533 ] } },
{ "type": "Feature", "properties": { "id": 185, "address": "Melba Hwy", "location": "1659 MELBA HWY DIXONS CREEK /PINNACLE LANE SV 6451 A14 (602368)", "maxvolume": 0.0, "strategic": "Strategic", "sub_type": "Hydrant" }, "geometry": { "type": "Point", "coordinates": [ 145.416612848338104, -37.604516297191843 ] } },
{ "type": "Feature", "properties": { "id": 186, "address": null, "location": "HEALESVILLE SV 6536 D2 (734339)", "maxvolume": 0.0, "strategic": "Strategic", "sub_type": "Dam" }, "geometry": { "type": "Point", "coordinates": [ 145.565893533211351, -37.632471003531457 ] } },
{ "type": "Feature", "properties": { "id": 1046, "address": "Bald Spur Road", "location": "370 BALD SPUR ROAD ST ANDREWS /RANKINE RD //WHITTLESEA - KINGLAKE RD SV 6450 A8 (504427)", "maxvolume": 120000.0, "strategic": "Tactical", "sub_type": "Fire Water Tank" }, "geometry": { "type": "Point", "coordinates": [ 145.30720193201978, -37.550583985230844 ] } },
{ "type": "Feature", "properties": { "id": 1047, "address": "MERRIANG RD", "location": "CNR MERRIANG RD BEVERIDGE /ELIZABETH PL SV 6447 F4 (255467)", "maxvolume": 22000.0, "strategic": "Strategic", "sub_type": "Fire Water Tank" }, "geometry": { "type": "Point", "coordinates": [ 145.025884225450056, -37.509872802307278 ] } },
{ "type": "Feature", "properties": { "id": 78, "address": null, "location": "NORTH WARRANDYTE M 23 E6 (428240)", "maxvolume": 0.0, "strategic": "Tactical", "sub_type": "Hydrant" }, "geometry": { "type": "Point", "coordinates": [ 145.217486972094008, -37.717686980539007 ] } },
{ "type": "Feature", "properties": { "id": 1048, "address": "Hewitts Rd", "location": "HEWITTS RD ST ANDREWS /HILDERBRAND RD //MITTONS BRIDGE RD M 394 F3 (468399)", "maxvolume": 130000.0, "strategic": "Tactical", "sub_type": "Fire Water Tank" }, "geometry": { "type": "Point", "coordinates": [ 145.265171534053906, -37.575084615273965 ] } },
{ "type": "Feature", "properties": { "id": 170, "address": null, "location": "RESEARCH M 22 K1 (406259)", "maxvolume": 0.0, "strategic": "Tactical", "sub_type": "Hydrant BP" }, "geometry": { "type": "Point", "coordinates": [ 145.192905465416686, -37.699974183547553 ] } },
{ "type": "Feature", "properties": { "id": 1049, "address": "Hildebrand Rd", "location": "205 HILDEBRAND RD COTTLES BRIDGE /CLEVE CRT //SHAWS RD M 393 K7 (443380)", "maxvolume": 0.0, "strategic": "Strategic", "sub_type": "Dam" }, "geometry": { "type": "Point", "coordinates": [ 145.236629668138619, -37.591208428192822 ] } },
{ "type": "Feature", "properties": { "id": 1050, "address": "Hildebrand Rd", "location": "HILDEBRAND RD COTTLES BRIDGE /SHAWS RD //CLEEVE CT M 394 C5 (455388)", "maxvolume": 22000.0, "strategic": "Tactical", "sub_type": "Fire Water Tank" }, "geometry": { "type": "Point", "coordinates": [ 145.250343460963677, -37.584259712033003 ] } },
{ "type": "Feature", "properties": { "id": 194, "address": "Saxil Gr", "location": "SAXIL GR HEALESVILLE M 269 F9 (665327)", "maxvolume": 22500.0, "strategic": "Tactical", "sub_type": "Fire Water Tank" }, "geometry": { "type": "Point", "coordinates": [ 145.487691330334059, -37.642748162399279 ] } },
{ "type": "Feature", "properties": { "id": 195, "address": "Whitlesea - Kinglake Road", "location": "OPP 850 WHITLESEA - KINGLAKE ROAD PHEASANT CREEK /WATSONS ROAD SV 8194 K15 (480502)", "maxvolume": 25000.0, "strategic": "Tactical", "sub_type": "Fire Water Tank" }, "geometry": { "type": "Point", "coordinates": [ 145.281535768001248, -37.481783708967143 ] } },
{ "type": "Feature", "properties": { "id": 196, "address": "Opp 850", "location": "OPP 850 PHEASANT CREEK /WHITLESEA - KINGLAKE ROAD //WATSONS ROAD SV 8194 K15 (480502)", "maxvolume": 25000.0, "strategic": "Tactical", "sub_type": "Fire Water Tank" }, "geometry": { "type": "Point", "coordinates": [ 145.281481012197048, -37.481788356178704 ] } },
{ "type": "Feature", "properties": { "id": 197, "address": null, "location": "PHEASANT CREEK SV 8194 J11 (477519)", "maxvolume": 0.0, "strategic": "Strategic", "sub_type": "Dam" }, "geometry": { "type": "Point", "coordinates": [ 145.278416459478223, -37.466692154676544 ] } },
{ "type": "Feature", "properties": { "id": 198, "address": "Whittlesea - Kinglake Rd", "location": "720 WHITTLESEA - KINGLAKE RD PHEASANT CREEK /PHEASANT CREEK ROAD SV 6365 K15 (492504)", "maxvolume": 0.0, "strategic": "Strategic", "sub_type": "Dam" }, "geometry": { "type": "Point", "coordinates": [ 145.29478078937305, -37.480805819300706 ] } },
{ "type": "Feature", "properties": { "id": 199, "address": "Thooheys Road", "location": "92 THOOHEYS ROAD PHEASANT CREEK /HALLS ROAD SV 6450 A1 (505495)", "maxvolume": 0.0, "strategic": "Strategic", "sub_type": "Dam" }, "geometry": { "type": "Point", "coordinates": [ 145.309031631654818, -37.488728445229732 ] } },
{ "type": "Feature", "properties": { "id": 200, "address": "Extons Road", "location": "37 EXTONS ROAD KINGLAKE CENTRAL /WHITTLESEA - KINGLAKE RD M 380 B1 (511477)", "maxvolume": 80000.0, "strategic": "Strategic", "sub_type": "Fire Water Tank" }, "geometry": { "type": "Point", "coordinates": [ 145.315683873915447, -37.504825001341644 ] } },
{ "type": "Feature", "properties": { "id": 201, "address": "Extons Road", "location": "37 EXTONS ROAD KINGLAKE CENTRAL /WHITTLESEA - KINGLAKE RD M 380 B1 (511477)", "maxvolume": 80000.0, "strategic": "Strategic", "sub_type": "Fire Water Tank" }, "geometry": { "type": "Point", "coordinates": [ 145.31567219367156, -37.504892626740109 ] } },
{ "type": "Feature", "properties": { "id": 202, "address": "Whittlesea - Kinglake Rd", "location": "1061 WHITTLESEA - KINGLAKE RD KINGLAKE WEST /RECREATION ROAD SV 8194 D15 (459502)", "maxvolume": 225000.0, "strategic": "Strategic", "sub_type": "Fire Water Tank" }, "geometry": { "type": "Point", "coordinates": [ 145.257105186883052, -37.481629264447506 ] } },
{ "type": "Feature", "properties": { "id": 203, "address": "Whittlesea - Kinglake Rd", "location": "1055 WHITTLESEA - KINGLAKE RD KINGLAKE WEST /RECREATION ROAD SV 8194 E15 (460503)", "maxvolume": 22000.0, "strategic": "Tactical", "sub_type": "Fire Water Tank" }, "geometry": { "type": "Point", "coordinates": [ 145.258479801362483, -37.481077777774381 ] } },
{ "type": "Feature", "properties": { "id": 204, "address": "Whittlesea - Kinglake Rd", "location": "1049 WHITTLESEA - KINGLAKE RD KINGLAKE WEST /PERIGRINE DRIVE SV 8194 E15 (461503)", "maxvolume": 80000.0, "strategic": "Strategic", "sub_type": "Fire Water Tank" }, "geometry": { "type": "Point", "coordinates": [ 145.260190804999979, -37.48123990900001 ] } },
{ "type": "Feature", "properties": { "id": 205, "address": "Whittlesea - Kinglake Rd", "location": "1049 WHITTLESEA - KINGLAKE RD KINGLAKE WEST /PERIGRINE DRIVE SV 8194 E15 (461503)", "maxvolume": 80000.0, "strategic": "Strategic", "sub_type": "Fire Water Tank" }, "geometry": { "type": "Point", "coordinates": [ 145.260177480000038, -37.48134080099998 ] } },
{ "type": "Feature", "properties": { "id": 206, "address": "Edenvale Road", "location": "261 EDENVALE ROAD KINGLAKE WEST /PLOVER WAY SV 8194 C12 (455515)", "maxvolume": 0.0, "strategic": "Strategic", "sub_type": "Dam" }, "geometry": { "type": "Point", "coordinates": [ 145.253860574284829, -37.470430759220299 ] } },
{ "type": "Feature", "properties": { "id": 207, "address": "Kelly Crt", "location": "END KELLY CRT KINGLAKE WEST /WATSONS ROAD SV 8194 G12 (469515)", "maxvolume": 0.0, "strategic": "Strategic", "sub_type": "Dam" }, "geometry": { "type": "Point", "coordinates": [ 145.269468702772713, -37.470676426065069 ] } },
{ "type": "Feature", "properties": { "id": 208, "address": "Kestral Lane", "location": "50 KESTRAL LANE KINGLAKE WEST /NAGLE WAY SV 8194 E11 (462517)", "maxvolume": 0.0, "strategic": "Strategic", "sub_type": "Dam" }, "geometry": { "type": "Point", "coordinates": [ 145.261167876072392, -37.468505127227992 ] } },
{ "type": "Feature", "properties": { "id": 209, "address": "Kestral Lane", "location": "KESTRAL LANE KINGLAKE WEST SV 8194 E10 (462522)", "maxvolume": 0.0, "strategic": "Strategic", "sub_type": "Water Course" }, "geometry": { "type": "Point", "coordinates": [ 145.261723397142049, -37.464304108649173 ] } },
{ "type": "Feature", "properties": { "id": 210, "address": "Nichols Road", "location": "1 NICHOLS ROAD KINGLAKE WEST /WHITTLESEA - YEA ROAD SV 8194 A9 (446527)", "maxvolume": 0.0, "strategic": "Strategic", "sub_type": "Dam" }, "geometry": { "type": "Point", "coordinates": [ 145.243940374788139, -37.458659973063369 ] } },
{ "type": "Feature", "properties": { "id": 211, "address": "Scott Ave", "location": "SCOTT AVE KINGLAKE WEST /WHITTLESEA - YEA ROAD SV 8170 C4 (440508)", "maxvolume": 22000.0, "strategic": "Tactical", "sub_type": "Fire Water Tank" }, "geometry": { "type": "Point", "coordinates": [ 145.236284301886002, -37.475769951339444 ] } },
{ "type": "Feature", "properties": { "id": 212, "address": "Scott Avenue", "location": "SCOTT AVENUE KINGLAKE WEST /WHITTLESEA - YEA ROAD SV 8170 C4 (440508)", "maxvolume": 22000.0, "strategic": "Tactical", "sub_type": "Fire Water Tank" }, "geometry": { "type": "Point", "coordinates": [ 145.23602167859201, -37.475889848761817 ] } },
{ "type": "Feature", "properties": { "id": 213, "address": "Whitlesea - Yea Road", "location": "1419 WHITLESEA - YEA ROAD KINGLAKE WEST /CAMP ROAD SV 6365 D13 (431527)", "maxvolume": 0.0, "strategic": "Tactical", "sub_type": "Dam" }, "geometry": { "type": "Point", "coordinates": [ 145.226764751859577, -37.458607989607607 ] } },
{ "type": "Feature", "properties": { "id": 214, "address": "Whitlesea - Yea Road", "location": "1419 WHITLESEA - YEA ROAD KINGLAKE WEST /CAMP ROAD SV 6365 D13 (433527)", "maxvolume": 0.0, "strategic": "Tactical", "sub_type": "Water Course" }, "geometry": { "type": "Point", "coordinates": [ 145.229256843173744, -37.458518649005349 ] } },
{ "type": "Feature", "properties": { "id": 215, "address": "National Park Road", "location": "200 NATIONAL PARK ROAD KINGLAKE WEST /BURTONS ROAD SV 6449 G2 (469486)", "maxvolume": 0.0, "strategic": "Strategic", "sub_type": "Dam" }, "geometry": { "type": "Point", "coordinates": [ 145.268795566165153, -37.496752113583192 ] } },
{ "type": "Feature", "properties": { "id": 216, "address": "National Park Road", "location": "200 NATIONAL PARK ROAD KINGLAKE WEST /BURTONS ROAD SV 6449 G2 (467484)", "maxvolume": 0.0, "strategic": "Strategic", "sub_type": "Dam" }, "geometry": { "type": "Point", "coordinates": [ 145.266267407099434, -37.497805509689485 ] } },
{ "type": "Feature", "properties": { "id": 217, "address": "National Park Road", "location": "100 NATIONAL PARK ROAD KINGLAKE WEST /WHITTLESEA - KINGLAKE ROAD SV 6449 H1 (474494)", "maxvolume": 0.0, "strategic": "Strategic", "sub_type": "Dam" }, "geometry": { "type": "Point", "coordinates": [ 145.274500900232653, -37.489150294321085 ] } },
{ "type": "Feature", "properties": { "id": 218, "address": "Boggy Gate Road", "location": "175 BOGGY GATE ROAD CLARKEFIELD /HAVELOCK ROAD SV 6445 E2 (049485)", "maxvolume": 35000.0, "strategic": "Tactical", "sub_type": "Fire Water Tank" }, "geometry": { "type": "Point", "coordinates": [ 144.793274817283219, -37.489418232369637 ] } },
{ "type": "Feature", "properties": { "id": 219, "address": "Parker Rd", "location": "CNR PARKER RD KINGLAKE WEST /COOMBS RD SV 6449 A4 (408467)", "maxvolume": 22000.0, "strategic": "Tactical", "sub_type": "Fire Water Tank" }, "geometry": { "type": "Point", "coordinates": [ 145.198720671913975, -37.512516883005645 ] } },
{ "type": "Feature", "properties": { "id": 220, "address": "James St", "location": "20 JAMES ST KINGLAKE /MILL ST M 380 G5 (540469)", "maxvolume": 0.0, "strategic": "Strategic", "sub_type": "Dam" }, "geometry": { "type": "Point", "coordinates": [ 145.349004167869538, -37.512559071579624 ] } },
{ "type": "Feature", "properties": { "id": 221, "address": null, "location": "KINGLAKE M 380 G4 (541471)", "maxvolume": 0.0, "strategic": "Strategic", "sub_type": "Dam" }, "geometry": { "type": "Point", "coordinates": [ 145.349416910580942, -37.511062321521777 ] } },
{ "type": "Feature", "properties": { "id": 222, "address": "Weber Road", "location": "70 WEBER ROAD KINGLAKE /OLD GLENBURN ROAD M 380 J4 (548475)", "maxvolume": 0.0, "strategic": "Strategic", "sub_type": "Dam" }, "geometry": { "type": "Point", "coordinates": [ 145.357325952982734, -37.50743601433382 ] } },
{ "type": "Feature", "properties": { "id": 223, "address": "Old Glenburn Road", "location": "1 OLD GLENBURN ROAD KINGLAKE /GEORGE STREET SV 8169 J4 (554472)", "maxvolume": 22000.0, "strategic": "Tactical", "sub_type": "Fire Water Tank" }, "geometry": { "type": "Point", "coordinates": [ 145.364778408898047, -37.509967476562665 ] } },
{ "type": "Feature", "properties": { "id": 224, "address": "Old Glenburn Road", "location": "1 OLD GLENBURN ROAD KINGLAKE /GEORGE STREET SV 8169 J4 (554472)", "maxvolume": 22000.0, "strategic": "Tactical", "sub_type": "Fire Water Tank" }, "geometry": { "type": "Point", "coordinates": [ 145.36473778270792, -37.509997530202661 ] } },
{ "type": "Feature", "properties": { "id": 225, "address": "Old Glenburn Road", "location": "1 OLD GLENBURN ROAD KINGLAKE /GEORGE STREET SV 8169 J4 (554472)", "maxvolume": 22000.0, "strategic": "Tactical", "sub_type": "Fire Water Tank" }, "geometry": { "type": "Point", "coordinates": [ 145.364698746776583, -37.510025156553347 ] } },
{ "type": "Feature", "properties": { "id": 226, "address": "Old Glenburn Road", "location": "1 OLD GLENBURN ROAD KINGLAKE /GEORGE STREET SV 8169 J4 (554472)", "maxvolume": 22000.0, "strategic": "Tactical", "sub_type": "Fire Water Tank" }, "geometry": { "type": "Point", "coordinates": [ 145.364650409508698, -37.510056328027645 ] } },
{ "type": "Feature", "properties": { "id": 227, "address": "Kinglake - Glenburn Rd", "location": "679 KINGLAKE - GLENBURN RD KINGLAKE /MOUNTAIN CREEK TRACK SV 6450 G2 (563489)", "maxvolume": 20000000.0, "strategic": "Strategic", "sub_type": "Dam" }, "geometry": { "type": "Point", "coordinates": [ 145.375262488288854, -37.495289025393959 ] } },
{ "type": "Feature", "properties": { "id": 1051, "address": "Charlber Ln", "location": "40 CHARLBER LN ST ANDREWS /HEIDELBERG - KINGLAKE RD M 394 C11 (456365)", "maxvolume": 0.0, "strategic": "Strategic", "sub_type": "Dam" }, "geometry": { "type": "Point", "coordinates": [ 145.251670193873764, -37.604770641461002 ] } },
{ "type": "Feature", "properties": { "id": 132, "address": null, "location": "KINGLAKE CENTRAL SV 6450 A3 (501472)", "maxvolume": 22000.0, "strategic": "Tactical", "sub_type": "Fire Water Tank" }, "geometry": { "type": "Point", "coordinates": [ 145.304236153571225, -37.509143798220755 ] } },
{ "type": "Feature", "properties": { "id": 122, "address": "580 Ridge Road", "location": null, "maxvolume": null, "strategic": "Tactical", "sub_type": "Tank" }, "geometry": { "type": "Point", "coordinates": [ 145.308846376340682, -37.664015493278633 ] } },
{ "type": "Feature", "properties": { "id": 1052, "address": "Youngs Rd", "location": "YOUNGS RD ST ANDREWS /HEIDELBERG - KINGLAKE RD M 394 A12 (450362)", "maxvolume": 80000.0, "strategic": "Tactical", "sub_type": "Fire Water Tank" }, "geometry": { "type": "Point", "coordinates": [ 145.24483659400147, -37.607439219476674 ] } },
{ "type": "Feature", "properties": { "id": 85, "address": "Stockdale Rd", "location": "STOCKDALE RD WALLAN SV 6362 E8 (146576)", "maxvolume": 20000.0, "strategic": "Tactical", "sub_type": "Fire Water Tank" }, "geometry": { "type": "Point", "coordinates": [ 144.906102521019193, -37.409779723601531 ] } },
{ "type": "Feature", "properties": { "id": 233, "address": "Ridge Road", "location": "CNR RIDGE ROAD YAN YEAN /ARTHURS CREEK ROAD M 391 J2 (360400)", "maxvolume": 0.0, "strategic": "Strategic", "sub_type": "Hydrant" }, "geometry": { "type": "Point", "coordinates": [ 145.143984510539042, -37.572335090302055 ] } },
{ "type": "Feature", "properties": { "id": 86, "address": "Old Sydney Rd", "location": "OLD SYDNEY RD WALLAN /BEAUVIEW DRIVE SV 6362 K4 (197612)", "maxvolume": 20000.0, "strategic": "Tactical", "sub_type": "Fire Water Tank" }, "geometry": { "type": "Point", "coordinates": [ 144.963783151395802, -37.3780692816824 ] } },
{ "type": "Feature", "properties": { "id": 235, "address": "Ridge Road", "location": "925 RIDGE ROAD YAN YEAN /DEEP CREEK ROAD //ARTHURS CREEK ROAD SV 6448 H9 (379417)", "maxvolume": 0.0, "strategic": "Strategic", "sub_type": "Hydrant" }, "geometry": { "type": "Point", "coordinates": [ 145.165586731269514, -37.556968558362847 ] } },
{ "type": "Feature", "properties": { "id": 87, "address": "Old Sydney Road", "location": "OLD SYDNEY ROAD BEVERIDGE /CAMERONS LANE SV 6362 G14 (165516)", "maxvolume": 20000.0, "strategic": "Tactical", "sub_type": "Fire Water Tank" }, "geometry": { "type": "Point", "coordinates": [ 144.92563714340568, -37.463411851227924 ] } },
{ "type": "Feature", "properties": { "id": 237, "address": "Hurstbridge - Arthurs Creek Road", "location": "835 HURSTBRIDGE - ARTHURS CREEK ROAD ARTHURS CREEK /NANKERVIS ROAD M 393 C5 (416389)", "maxvolume": 0.0, "strategic": "Tactical", "sub_type": "Hydrant" }, "geometry": { "type": "Point", "coordinates": [ 145.206942410525556, -37.583319808052174 ] } },
{ "type": "Feature", "properties": { "id": 238, "address": "Arthurs Creek Road", "location": "Opp 861 ARTHURS CREEK ROAD ARTHURS CREEK M 393 C5 (415390)", "maxvolume": 0.0, "strategic": "Tactical", "sub_type": "Hydrant" }, "geometry": { "type": "Point", "coordinates": [ 145.205924149858845, -37.581567416783002 ] } },
{ "type": "Feature", "properties": { "id": 1053, "address": "Charlber Ln", "location": "90 CHARLBER LN ST ANDREWS /HEIDELBERG - KINGLAKE RD M 394 C10 (457371)", "maxvolume": 0.0, "strategic": "Strategic", "sub_type": "Dam" }, "geometry": { "type": "Point", "coordinates": [ 145.25300425591405, -37.600040852326131 ] } },
{ "type": "Feature", "properties": { "id": 240, "address": null, "location": "ARTHURS CREEK M 393 B4 (411393)", "maxvolume": 0.0, "strategic": "Tactical", "sub_type": "Hydrant" }, "geometry": { "type": "Point", "coordinates": [ 145.201586389412455, -37.579465858862108 ] } },
{ "type": "Feature", "properties": { "id": 241, "address": null, "location": "ARTHURS CREEK M 393 B4 (412393)", "maxvolume": 0.0, "strategic": "Tactical", "sub_type": "Hydrant" }, "geometry": { "type": "Point", "coordinates": [ 145.202485294419148, -37.579295078311915 ] } },
{ "type": "Feature", "properties": { "id": 242, "address": "Arthurs Creek Road", "location": "865 ARTHURS CREEK ROAD ARTHURS CREEK M 393 B4 (415391)", "maxvolume": 0.0, "strategic": "Tactical", "sub_type": "Hydrant" }, "geometry": { "type": "Point", "coordinates": [ 145.205161302679812, -37.581103766681593 ] } },
{ "type": "Feature", "properties": { "id": 89, "address": null, "location": "RESEARCH M 22 F1 (393257)", "maxvolume": 0.0, "strategic": "Tactical", "sub_type": "Hydrant" }, "geometry": { "type": "Point", "coordinates": [ 145.178075507365008, -37.701857660147105 ] } },
{ "type": "Feature", "properties": { "id": 244, "address": "Deep Creek Road", "location": "110 DEEP CREEK ROAD ARTHURS CREEK /BRENNANS ROAD EAST //RUNNING CREEK ROAD SV 6449 A10 (405407)", "maxvolume": 0.0, "strategic": "Tactical", "sub_type": "Dam" }, "geometry": { "type": "Point", "coordinates": [ 145.19465820292973, -37.566213658505873 ] } },
{ "type": "Feature", "properties": { "id": 245, "address": "Brennans Road East", "location": "200 BRENNANS ROAD EAST ARTHURS CREEK /EAGLES NEST ROAD //DEEP CREEK ROAD M 393 D2 (422402)", "maxvolume": 0.0, "strategic": "Strategic", "sub_type": "Hydrant" }, "geometry": { "type": "Point", "coordinates": [ 145.213833389094304, -37.571390723604154 ] } },
{ "type": "Feature", "properties": { "id": 246, "address": "Running Creek Road", "location": "670 RUNNING CREEK ROAD ARTHURS CREEK /DEEP CREEK ROAD SV 6449 C7 (426432)", "maxvolume": 0.0, "strategic": "Strategic", "sub_type": "Hydrant" }, "geometry": { "type": "Point", "coordinates": [ 145.218308273658749, -37.544441403856112 ] } },
{ "type": "Feature", "properties": { "id": 90, "address": "Parsons Road", "location": "43986 PARSONS ROAD ELTHAM M 22 D1 (386256)", "maxvolume": 0.0, "strategic": "Tactical", "sub_type": "Hydrant" }, "geometry": { "type": "Point", "coordinates": [ 145.170219997156295, -37.701850238743305 ] } },
{ "type": "Feature", "properties": { "id": 1054, "address": "Watts Ln", "location": "WATTS LN COTTLES BRIDGE /HEIDELBERG - KINGLAKE RD M 393 K11 (446364)", "maxvolume": 0.0, "strategic": "Strategic", "sub_type": "Water Course" }, "geometry": { "type": "Point", "coordinates": [ 145.240156943935659, -37.606383926760024 ] } },
{ "type": "Feature", "properties": { "id": 249, "address": "Townsings Road", "location": "243 TOWNSINGS ROAD DIGGERS REST /MT AITKEN ROAD M 381 B9 (946361)", "maxvolume": 22000.0, "strategic": "Tactical", "sub_type": "Fire Water Tank" }, "geometry": { "type": "Point", "coordinates": [ 144.673812008993735, -37.598906551381532 ] } },
{ "type": "Feature", "properties": { "id": 1055, "address": "Cleeve Crt", "location": "49 CLEEVE CRT COTTLES BRIDGE /HILDERBRAND RD M 394 A9 (449371)", "maxvolume": 0.0, "strategic": "Strategic", "sub_type": "Dam" }, "geometry": { "type": "Point", "coordinates": [ 145.243540425122887, -37.599314537951365 ] } },
{ "type": "Feature", "properties": { "id": 251, "address": null, "location": "SMITHS GULLY M 264 H1 (477355)", "maxvolume": 0.0, "strategic": "Tactical", "sub_type": "Portable Pump" }, "geometry": { "type": "Point", "coordinates": [ 145.275057521641401, -37.614141320425304 ] } },
{ "type": "Feature", "properties": { "id": 1056, "address": "Chase Rd", "location": "CHASE RD NORTH WARRANDYTE /FLOODS RD //STONY CREEK RD M 23 E6 (428238)", "maxvolume": 0.0, "strategic": "Tactical", "sub_type": "Fire Water Tank" }, "geometry": { "type": "Point", "coordinates": [ 145.21742219097527, -37.719562195703915 ] } },
{ "type": "Feature", "properties": { "id": 253, "address": "Brens Rd", "location": "30 BRENS RD SMITHS GULLY M 264 K2 (485355)", "maxvolume": 0.0, "strategic": "Tactical", "sub_type": "Portable Pump" }, "geometry": { "type": "Point", "coordinates": [ 145.283705764077581, -37.615068972163776 ] } },
{ "type": "Feature", "properties": { "id": 254, "address": "Black Cameron Rd", "location": "155 BLACK CAMERON RD SMITHS GULLY /BRENS RD M 264 K3 (483351)", "maxvolume": 0.0, "strategic": "Tactical", "sub_type": "Portable Pump" }, "geometry": { "type": "Point", "coordinates": [ 145.281706597363836, -37.617899867535989 ] } },
{ "type": "Feature", "properties": { "id": 94, "address": null, "location": "KANGAROO GROUND M 271 E10 (426269)", "maxvolume": 0.0, "strategic": "Tactical", "sub_type": "Hydrant" }, "geometry": { "type": "Point", "coordinates": [ 145.214850737743006, -37.690931770154684 ] } },
{ "type": "Feature", "properties": { "id": 95, "address": null, "location": "KANGAROO GROUND M 271 E11 (426269)", "maxvolume": 0.0, "strategic": "Tactical", "sub_type": "Hydrant" }, "geometry": { "type": "Point", "coordinates": [ 145.215275036193987, -37.691369261632893 ] } },
{ "type": "Feature", "properties": { "id": 96, "address": null, "location": "KANGAROO GROUND M 271 E11 (426269)", "maxvolume": 0.0, "strategic": "Tactical", "sub_type": "Hydrant BP" }, "geometry": { "type": "Point", "coordinates": [ 145.215531092537702, -37.691334453335195 ] } },
{ "type": "Feature", "properties": { "id": 97, "address": null, "location": "KANGAROO GROUND M 271 D11 (425269)", "maxvolume": 0.0, "strategic": "Tactical", "sub_type": "Hydrant" }, "geometry": { "type": "Point", "coordinates": [ 145.214563902579954, -37.691268367681054 ] } },
{ "type": "Feature", "properties": { "id": 1057, "address": "Danita Drive", "location": "2 DANITA DRIVE NORTH WARRANDYTE /RESEARCH - WARRANDYTE RD M 23 C7 (421234)", "maxvolume": 0.0, "strategic": "Strategic", "sub_type": "Dam" }, "geometry": { "type": "Point", "coordinates": [ 145.209071288691689, -37.722986303529126 ] } },
{ "type": "Feature", "properties": { "id": 99, "address": "Clonbinane Road", "location": "CLONBINANE ROAD CLONBINANE /DRAG HILL RD SV 6279 J12 (286683)", "maxvolume": 20000.0, "strategic": "Tactical", "sub_type": "Fire Water Tank" }, "geometry": { "type": "Point", "coordinates": [ 145.065832056896966, -37.316118882700081 ] } },
{ "type": "Feature", "properties": { "id": 261, "address": null, "location": "ST ANDREWS M 394 G10 (472368)", "maxvolume": 0.0, "strategic": "Strategic", "sub_type": "Hydrant BP" }, "geometry": { "type": "Point", "coordinates": [ 145.269418598813729, -37.602626886679701 ] } },
{ "type": "Feature", "properties": { "id": 262, "address": null, "location": "ST ANDREWS M 394 G10 (472368)", "maxvolume": 0.0, "strategic": "Tactical", "sub_type": "Hydrant" }, "geometry": { "type": "Point", "coordinates": [ 145.26963883735209, -37.602328196103059 ] } },
{ "type": "Feature", "properties": { "id": 263, "address": null, "location": "ST ANDREWS M 394 G10 (472369)", "maxvolume": 0.0, "strategic": "Tactical", "sub_type": "Hydrant" }, "geometry": { "type": "Point", "coordinates": [ 145.269586186492006, -37.601883805552767 ] } },
{ "type": "Feature", "properties": { "id": 264, "address": null, "location": "ST ANDREWS M 394 G10 (473369)", "maxvolume": 0.0, "strategic": "Tactical", "sub_type": "Suction Point" }, "geometry": { "type": "Point", "coordinates": [ 145.27111854709932, -37.601808159693476 ] } },
{ "type": "Feature", "properties": { "id": 265, "address": null, "location": "ST ANDREWS M 394 G10 (473369)", "maxvolume": 0.0, "strategic": "Tactical", "sub_type": "Hydrant" }, "geometry": { "type": "Point", "coordinates": [ 145.270213906548094, -37.602292266439505 ] } },
{ "type": "Feature", "properties": { "id": 266, "address": "Caledonia Street", "location": "25 CALEDONIA STREET ST ANDREWS M 394 G10 (472368)", "maxvolume": 106000.0, "strategic": "Tactical", "sub_type": "Fire Water Tank" }, "geometry": { "type": "Point", "coordinates": [ 145.269324633768122, -37.602660150623443 ] } },
{ "type": "Feature", "properties": { "id": 267, "address": "Caledonia Street", "location": "25 CALEDONIA STREET ST ANDREWS M 394 G10 (472368)", "maxvolume": 92000.0, "strategic": "Tactical", "sub_type": "Fire Water Tank" }, "geometry": { "type": "Point", "coordinates": [ 145.269119368546683, -37.602749518796571 ] } },
{ "type": "Feature", "properties": { "id": 100, "address": "Clonbinane Road", "location": "CLONBINANE ROAD CLONBINANE /DRAG HILL RD SV 6279 J12 (286683)", "maxvolume": 20000.0, "strategic": "Tactical", "sub_type": "Fire Water Tank" }, "geometry": { "type": "Point", "coordinates": [ 145.065873384970075, -37.316145485809841 ] } },
{ "type": "Feature", "properties": { "id": 101, "address": "Spur Rd", "location": "SPUR RD CLONBINANE /BROADFORD - WANDONG ROAD SV 6279 H9 (278715)", "maxvolume": 20000.0, "strategic": "Strategic", "sub_type": "Fire Water Tank" }, "geometry": { "type": "Point", "coordinates": [ 145.058282599657701, -37.28708402214675 ] } },
{ "type": "Feature", "properties": { "id": 102, "address": "KOOS ROAD", "location": "KOOS ROAD KANGAROO GROUND /KINGS RD M 271 H4 (439296)", "maxvolume": 0.0, "strategic": "Tactical", "sub_type": "Dam" }, "geometry": { "type": "Point", "coordinates": [ 145.231144950610627, -37.666688205961997 ] } },
{ "type": "Feature", "properties": { "id": 1058, "address": "Kangaroo Ground - Warrandyte Rd", "location": "KANGAROO GROUND - WARRANDYTE RD NORTH WARRANDYTE /PIGEON BANK RD //CHASE VIEW CT M 23 G5 (435243)", "maxvolume": 130000.0, "strategic": "Tactical", "sub_type": "Fire Water Tank" }, "geometry": { "type": "Point", "coordinates": [ 145.224972830790733, -37.715088298454795 ] } },
{ "type": "Feature", "properties": { "id": 1059, "address": "Joslyn Drv", "location": "2 JOSLYN DRV RESEARCH /RESEARCH - WARRANDYTE RD M 23 A3 (412248)", "maxvolume": 0.0, "strategic": "Strategic", "sub_type": "Dam" }, "geometry": { "type": "Point", "coordinates": [ 145.199184222881513, -37.709551127603014 ] } },
{ "type": "Feature", "properties": { "id": 1060, "address": "Bells Hill Rd", "location": "CNR BELLS HILL RD RESEARCH /RESEARCH - WARRANDYTE RD M 22 K3 (408250)", "maxvolume": 0.0, "strategic": "Strategic", "sub_type": "Dam" }, "geometry": { "type": "Point", "coordinates": [ 145.194388554290185, -37.707567172498763 ] } },
{ "type": "Feature", "properties": { "id": 1061, "address": "Reynolds Rd", "location": "295 REYNOLDS RD RESEARCH /MOUNT PLEASANT RD //NYORA RD M 22 E7 (390233)", "maxvolume": 0.0, "strategic": "Strategic", "sub_type": "Dam" }, "geometry": { "type": "Point", "coordinates": [ 145.173737353275357, -37.722596748413125 ] } },
{ "type": "Feature", "properties": { "id": 1062, "address": "Gum Tree Rd", "location": "95 GUM TREE RD RESEARCH /MOUNT PLEASANT RD M 22 H6 (401239)", "maxvolume": 40000.0, "strategic": "Tactical", "sub_type": "Tank" }, "geometry": { "type": "Point", "coordinates": [ 145.186484831116587, -37.717692698027427 ] } },
{ "type": "Feature", "properties": { "id": 1063, "address": "Mount Pleasant Rd", "location": "525 MOUNT PLEASANT RD RESEARCH /GUM TREE RD //BEAUTY POINT RD M 22 J6 (403237)", "maxvolume": 0.0, "strategic": "Strategic", "sub_type": "Dam" }, "geometry": { "type": "Point", "coordinates": [ 145.188398953536534, -37.719686792288663 ] } },
{ "type": "Feature", "properties": { "id": 110, "address": null, "location": "KALKALLO M 367 E5 (189432)", "maxvolume": 35000.0, "strategic": "Tactical", "sub_type": "Fire Water Tank" }, "geometry": { "type": "Point", "coordinates": [ 144.95117265693986, -37.540268331127429 ] } },
{ "type": "Feature", "properties": { "id": 111, "address": null, "location": "KALKALLO M 367 E5 (189432)", "maxvolume": 35000.0, "strategic": "Tactical", "sub_type": "Fire Water Tank" }, "geometry": { "type": "Point", "coordinates": [ 144.951163691143819, -37.540317692825852 ] } },
{ "type": "Feature", "properties": { "id": 112, "address": "Brookville Dr", "location": "BROOKVILLE DR CRAIGIEBURN /KINLOCH COURT M 367 D10 (188413)", "maxvolume": 35000.0, "strategic": "Tactical", "sub_type": "Fire Water Tank" }, "geometry": { "type": "Point", "coordinates": [ 144.948922250556421, -37.557186396638308 ] } },
{ "type": "Feature", "properties": { "id": 113, "address": "Donnybrook Road", "location": "670 DONNYBROOK ROAD CRAIGIEBURN /DWYER STREET M 367 F6 (192430)", "maxvolume": 35000.0, "strategic": "Tactical", "sub_type": "Fire Water Tank" }, "geometry": { "type": "Point", "coordinates": [ 144.954127869824219, -37.541806330562878 ] } },
{ "type": "Feature", "properties": { "id": 114, "address": "Donna Buang Road", "location": "DONNA BUANG ROAD HEALESVILLE SV 6536 H10 (775259)", "maxvolume": 22500.0, "strategic": "Tactical", "sub_type": "Fire Water Tank" }, "geometry": { "type": "Point", "coordinates": [ 145.611124582862885, -37.705895811345314 ] } },
{ "type": "Feature", "properties": { "id": 282, "address": "Old Kilmore - Lancefield Road", "location": "CNR OLD KILMORE - LANCEFIELD ROAD KILMORE /FORBES - MORANDERING ROAD SV 6278 B9 (117711)", "maxvolume": 0.0, "strategic": "Tactical", "sub_type": "Fire Water Tank" }, "geometry": { "type": "Point", "coordinates": [ 144.876515970520728, -37.28722977616269 ] } },
{ "type": "Feature", "properties": { "id": 283, "address": "Hume Hwy off Ramp", "location": "HUME HWY OFF RAMP WALLAN /WALLAN WHITTLESEA ROAD M 646 F11 (228568)", "maxvolume": 20000.0, "strategic": "Tactical", "sub_type": "Fire Water Tank" }, "geometry": { "type": "Point", "coordinates": [ 144.997884587197433, -37.417805213816372 ] } },
{ "type": "Feature", "properties": { "id": 115, "address": "Capstone Drive", "location": "115W CAPSTONE DRIVE WHITTLESEA /HALLS ROAD SV 6364 C13 (324528)", "maxvolume": 22000.0, "strategic": "Tactical", "sub_type": "Fire Water Tank" }, "geometry": { "type": "Point", "coordinates": [ 145.105140057356891, -37.456105775342834 ] } },
{ "type": "Feature", "properties": { "id": 1064, "address": "Orme Rd", "location": "ORME RD DIAMOND CREEK /INGRAMS RD //REYNOLDS RD M 12 F10 (391272)", "maxvolume": 0.0, "strategic": "Tactical", "sub_type": "Dam" }, "geometry": { "type": "Point", "coordinates": [ 145.175511108043509, -37.687747044450482 ] } },
{ "type": "Feature", "properties": { "id": 1065, "address": "Kangaroo Ground - Warrandyte Rd", "location": "KANGAROO GROUND - WARRANDYTE RD KANGAROO GROUND /BELLBIRD LN //YEOMANS RD M 23 F3 (433249)", "maxvolume": 0.0, "strategic": "Strategic", "sub_type": "Hydrant" }, "geometry": { "type": "Point", "coordinates": [ 145.222648170893279, -37.709348518325754 ] } },
{ "type": "Feature", "properties": { "id": 1066, "address": "Menzies Rd", "location": "MENZIES RD KANGAROO GROUND /WONGABURRA WAY //BOURCHIERS RD M 23 K2 (447255)", "maxvolume": 0.0, "strategic": "Tactical", "sub_type": "Hydrant" }, "geometry": { "type": "Point", "coordinates": [ 145.238973022925478, -37.704032979911716 ] } },
{ "type": "Feature", "properties": { "id": 1067, "address": "Graham Rd", "location": "10 GRAHAM RD KANGAROO GROUND /ELTHAM - YARRA GLEN RD M 271 D10 (424269)", "maxvolume": 0.0, "strategic": "Tactical", "sub_type": "Tank" }, "geometry": { "type": "Point", "coordinates": [ 145.212872908925306, -37.690987442161905 ] } },
{ "type": "Feature", "properties": { "id": 120, "address": "Macgregor Rd", "location": "50 MACGREGOR RD BEVERIDGE /CAMERON RISE SV 6363 G13 (264523)", "maxvolume": 0.0, "strategic": "Tactical", "sub_type": "Dam" }, "geometry": { "type": "Point", "coordinates": [ 145.037732303545567, -37.4597354743509 ] } },
{ "type": "Feature", "properties": { "id": 1068, "address": "Graham Rd", "location": "END GRAHAM RD KANGAROO GROUND /ELTHAM - YARRA GLEN RD M 271 B10 (415271)", "maxvolume": 0.0, "strategic": "Strategic", "sub_type": "Dam" }, "geometry": { "type": "Point", "coordinates": [ 145.202841487263186, -37.689635839728112 ] } },
{ "type": "Feature", "properties": { "id": 291, "address": "WILSON ROAD", "location": "137 WILSON ROAD WATTLE GLEN /HEIDELBURG - KINGLAKE ROAD M 12 G2 (395301)", "maxvolume": 0.0, "strategic": "Strategic", "sub_type": "Hydrant" }, "geometry": { "type": "Point", "coordinates": [ 145.181195445409998, -37.661839925322703 ] } },
{ "type": "Feature", "properties": { "id": 1069, "address": "Watery Gully Rd", "location": "WATERY GULLY RD WATTLE GLEN /THORNS RD //JONES RD M 12 K4 (406293)", "maxvolume": 0.0, "strategic": "Strategic", "sub_type": "Dam" }, "geometry": { "type": "Point", "coordinates": [ 145.193288214610419, -37.668779670749515 ] } },
{ "type": "Feature", "properties": { "id": 123, "address": "Seventeenth Av", "location": "170 SEVENTEENTH AV EDEN PARK /TWELFTH AV SV 6363 J14 (286513)", "maxvolume": 0.0, "strategic": "Tactical", "sub_type": "Dam" }, "geometry": { "type": "Point", "coordinates": [ 145.062228640139665, -37.468574050452048 ] } },
{ "type": "Feature", "properties": { "id": 124, "address": "Wallan Rd", "location": "925 WALLAN RD EDEN PARK /PLENTY VALLEY RISE SV 6363 J13 (288529)", "maxvolume": 0.0, "strategic": "Tactical", "sub_type": "Dam" }, "geometry": { "type": "Point", "coordinates": [ 145.065148557160228, -37.454135774046676 ] } },
{ "type": "Feature", "properties": { "id": 295, "address": "Wandong Rd", "location": "WANDONG RD KILMORE SV 6279 B15 (212657)", "maxvolume": 20000.0, "strategic": "Tactical", "sub_type": "Fire Water Tank" }, "geometry": { "type": "Point", "coordinates": [ 144.982309947142966, -37.337477944536879 ] } },
{ "type": "Feature", "properties": { "id": 296, "address": "Mommsens Rd", "location": "MOMMSENS RD CLARKEFIELD SV 6445 J5 (087456)", "maxvolume": 35000.0, "strategic": "Tactical", "sub_type": "Fire Water Tank" }, "geometry": { "type": "Point", "coordinates": [ 144.835398721387463, -37.516424125174282 ] } },
{ "type": "Feature", "properties": { "id": 125, "address": "Wallan Road", "location": "CNR WALLAN ROAD EDEN PARK /PLENTY VALLEY RISE SV 6363 K13 (293527)", "maxvolume": 22000.0, "strategic": "Tactical", "sub_type": "Fire Water Tank" }, "geometry": { "type": "Point", "coordinates": [ 145.070380126350102, -37.456261832590727 ] } },
{ "type": "Feature", "properties": { "id": 298, "address": "Morang Wetlands West Trk", "location": "MORANG WETLANDS WEST TRK SOUTH MORANG /FROG HOLLOW TRK //WILTON VALE ROAD TRACK M 183 J5 (325337)", "maxvolume": 0.0, "strategic": "Strategic", "sub_type": "Dam" }, "geometry": { "type": "Point", "coordinates": [ 145.102087493414956, -37.628494044879041 ] } },
{ "type": "Feature", "properties": { "id": 1070, "address": "Mooney Rd", "location": "MOONEY RD YARRAMBAT /LICOLA RD M 184 B9 (335321)", "maxvolume": 22000.0, "strategic": "Tactical", "sub_type": "Fire Water Tank" }, "geometry": { "type": "Point", "coordinates": [ 145.113326235007719, -37.642734817154633 ] } },
{ "type": "Feature", "properties": { "id": 300, "address": "Boundary Road", "location": "45 BOUNDARY ROAD WOLLERT /EPPING ROAD M 389 B8 (259372)", "maxvolume": 0.0, "strategic": "Tactical", "sub_type": "Dam" }, "geometry": { "type": "Point", "coordinates": [ 145.027984402758079, -37.595675233425247 ] } },
{ "type": "Feature", "properties": { "id": 127, "address": "Stewart St", "location": "STEWART ST BEVERIDGE M 686 C2 (218508)", "maxvolume": 20000.0, "strategic": "Tactical", "sub_type": "Fire Water Tank" }, "geometry": { "type": "Point", "coordinates": [ 144.985024281054734, -37.472120845276294 ] } },
{ "type": "Feature", "properties": { "id": 302, "address": "Bridge Inn Road", "location": "45 BRIDGE INN ROAD WOLLERT /EPPING ROAD M 389 D6 (267380)", "maxvolume": 0.0, "strategic": "Tactical", "sub_type": "Dam" }, "geometry": { "type": "Point", "coordinates": [ 145.037190303841072, -37.588468933733076 ] } },
{ "type": "Feature", "properties": { "id": 303, "address": "Bridge Inn Road", "location": "135 BRIDGE INN ROAD WOLLERT /EPPING ROAD M 389 F6 (275380)", "maxvolume": 0.0, "strategic": "Tactical", "sub_type": "Dam" }, "geometry": { "type": "Point", "coordinates": [ 145.046532003910016, -37.588584968883282 ] } },
{ "type": "Feature", "properties": { "id": 304, "address": "Healseville - Yarra Glen Road", "location": "1159 HEALSEVILLE - YARRA GLEN ROAD YARRA GLEN M 275 B2 (573306)", "maxvolume": 0.0, "strategic": "Strategic", "sub_type": "Fire Water Tank" }, "geometry": { "type": "Point", "coordinates": [ 145.382392717891918, -37.660147502527877 ] } },
{ "type": "Feature", "properties": { "id": 305, "address": "Mickelham Road", "location": "1880 MICKELHAM ROAD MICKLEHAM /MT RIDLEY ROAD M 365 H11 (124405)", "maxvolume": 0.0, "strategic": "Tactical", "sub_type": "Fire Water Tank" }, "geometry": { "type": "Point", "coordinates": [ 144.876838483159702, -37.563141588883056 ] } },
{ "type": "Feature", "properties": { "id": 306, "address": null, "location": "MICKLEHAM M 365 H11 (126406)", "maxvolume": 35000.0, "strategic": "Tactical", "sub_type": "Fire Water Tank" }, "geometry": { "type": "Point", "coordinates": [ 144.878384131343182, -37.562446028879116 ] } },
{ "type": "Feature", "properties": { "id": 307, "address": "Mickleham Rd", "location": "MICKLEHAM RD MICKLEHAM /BARDWELL M 365 J7 (126422)", "maxvolume": 35000.0, "strategic": "Tactical", "sub_type": "Fire Water Tank" }, "geometry": { "type": "Point", "coordinates": [ 144.87912153298879, -37.548106643403919 ] } },
{ "type": "Feature", "properties": { "id": 308, "address": "Mickleham Rd", "location": "MICKLEHAM RD MICKLEHAM /BARDWELL M 365 J7 (126422)", "maxvolume": 35000.0, "strategic": "Strategic", "sub_type": "Fire Water Tank" }, "geometry": { "type": "Point", "coordinates": [ 144.879113908202925, -37.548158064746659 ] } },
{ "type": "Feature", "properties": { "id": 309, "address": null, "location": "CHRISTMAS HILLS M 273 F6 (510288)", "maxvolume": 0.0, "strategic": "Strategic", "sub_type": "Dam" }, "geometry": { "type": "Point", "coordinates": [ 145.311208464118153, -37.675038640288555 ] } },
{ "type": "Feature", "properties": { "id": 1071, "address": "Mooney Rd", "location": "MOONEY RD YARRAMBAT /LICOLA RD M 184 B9 (335321)", "maxvolume": 22000.0, "strategic": "Tactical", "sub_type": "Fire Water Tank" }, "geometry": { "type": "Point", "coordinates": [ 145.113313766480928, -37.642779678664716 ] } },
{ "type": "Feature", "properties": { "id": 130, "address": "Extons Road", "location": "359 EXTONS ROAD KINGLAKE CENTRAL /CAPTAINS CREEK ROAD SV 6366 B15 (519507)", "maxvolume": 25000.0, "strategic": "Tactical", "sub_type": "Fire Water Tank" }, "geometry": { "type": "Point", "coordinates": [ 145.325675843101664, -37.478166055523765 ] } },
{ "type": "Feature", "properties": { "id": 131, "address": "Bald Spur Road", "location": "CNR BALD SPUR ROAD KINGLAKE CENTRAL /WHITTLESEA - KINGLAKE RD M 380 D6 (518457)", "maxvolume": 45000.0, "strategic": "Tactical", "sub_type": "Fire Water Tank" }, "geometry": { "type": "Point", "coordinates": [ 145.323067260772632, -37.523264267273539 ] } },