{
"type": "FeatureCollection",
"name": "waterpoints",
"crs": { "type": "name", "properties": { "name": "urn:ogc:def:crs:OGC:1.3:CRS84" } },
"features": [
{ "type": "Feature", "properties": { "id": 1, "address": "Cooper Street", "maxvolume": 0.0, "strategic": "Tactical", "sub_type": "Dam" }, "geometry": { "type": "Point", "coordinates": [ 145.00826381501011, -37.651758847406995 ] } },
{ "type": "Feature", "properties": { "id": 2, "address": "Northwood Road", "maxvolume": 20000.0, "strategic": "Tactical", "sub_type": "Fire Water Tank" }, "geometry": { "type": "Point", "coordinates": [ 145.107909553487701, -36.962182880235517 ] } },
{ "type": "Feature", "properties": { "id": 3, "address": "Northwood Road", "maxvolume": 20000.0, "strategic": "Tactical", "sub_type": "Fire Water Tank" }, "geometry": { "type": "Point", "coordinates": [ 145.107919778869928, -36.962227172158116 ] } },
{ "type": "Feature", "properties": { "id": 4, "address": "Sugarloaf Creek Road", "maxvolume": 22000.0, "strategic": "Tactical", "sub_type": "Fire Water Tank" }, "geometry": { "type": "Point", "coordinates": [ 145.019259027645774, -37.087838974688488 ] } },
{ "type": "Feature", "properties": { "id": 5, "address": "Sugarloaf Creek Road", "maxvolume": 22000.0, "strategic": "Tactical", "sub_type": "Fire Water Tank" }, "geometry": { "type": "Point", "coordinates": [ 145.019287240397205, -37.087864289529854 ] } },
{ "type": "Feature", "properties": { "id": 6, "address": "Ghin Ghin Road", "maxvolume": 22000.0, "strategic": "Tactical", "sub_type": "Fire Water Tank" }, "geometry": { "type": "Point", "coordinates": [ 145.296969327549107, -37.04648501187409 ] } },
{ "type": "Feature", "properties": { "id": 7, "address": "Ghin Ghin Road", "maxvolume": 22000.0, "strategic": "Tactical", "sub_type": "Fire Water Tank" }, "geometry": { "type": "Point", "coordinates": [ 145.296983997323878, -37.046538186661479 ] } },
{ "type": "Feature", "properties": { "id": 8, "address": "Mollison Street", "maxvolume": 22000.0, "strategic": "Tactical", "sub_type": "Fire Water Tank" }, "geometry": { "type": "Point", "coordinates": [ 144.859519901208586, -37.117899435900405 ] } },
{ "type": "Feature", "properties": { "id": 9, "address": "Mollison Street", "maxvolume": 22000.0, "strategic": "Tactical", "sub_type": "Fire Water Tank" }, "geometry": { "type": "Point", "coordinates": [ 144.859524, -37.117938 ] } },
{ "type": "Feature", "properties": { "id": 10, "address": "Mollison Street", "maxvolume": 22000.0, "strategic": "Tactical", "sub_type": "Fire Water Tank" }, "geometry": { "type": "Point", "coordinates": [ 144.859524, -37.117938 ] } },
{ "type": "Feature", "properties": { "id": 11, "address": "Whitegate Road", "maxvolume": 20000.0, "strategic": "Tactical", "sub_type": "Fire Water Tank" }, "geometry": { "type": "Point", "coordinates": [ 144.908585874539227, -37.167071738810975 ] } },
{ "type": "Feature", "properties": { "id": 12, "address": "Whitegate Road", "maxvolume": 0.0, "strategic": "Tactical", "sub_type": "Fire Water Tank" }, "geometry": { "type": "Point", "coordinates": [ 144.90862235422901, -37.16704759450738 ] } },
{ "type": "Feature", "properties": { "id": 13, "address": "Watchbox Road", "maxvolume": 22000.0, "strategic": "Tactical", "sub_type": "Fire Water Tank" }, "geometry": { "type": "Point", "coordinates": [ 144.574868343500611, -37.096882952035173 ] } },
{ "type": "Feature", "properties": { "id": 14, "address": "Burke and Wills Track T", "maxvolume": 20000.0, "strategic": "Tactical", "sub_type": "Fire Water Tank" }, "geometry": { "type": "Point", "coordinates": [ 144.609234, -37.086454 ] } },
{ "type": "Feature", "properties": { "id": 15, "address": "Donnybrook Road", "maxvolume": 0.0, "strategic": "Tactical", "sub_type": "Fire Water Tank" }, "geometry": { "type": "Point", "coordinates": [ 144.975031321993782, -37.543581072275458 ] } },
{ "type": "Feature", "properties": { "id": 16, "address": "Konagaderra Road", "maxvolume": 35000.0, "strategic": "Tactical", "sub_type": "Fire Water Tank" }, "geometry": { "type": "Point", "coordinates": [ 144.784216750813783, -37.519211861575144 ] } },
{ "type": "Feature", "properties": { "id": 17, "address": "Konagaderra Road", "maxvolume": 0.0, "strategic": "Strategic", "sub_type": "Fire Water Tank" }, "geometry": { "type": "Point", "coordinates": [ 144.784281627249101, -37.519218127700775 ] } },
{ "type": "Feature", "properties": { "id": 18, "address": "Clark Ct", "maxvolume": 35000.0, "strategic": "Tactical", "sub_type": "Fire Water Tank" }, "geometry": { "type": "Point", "coordinates": [ 144.772020780194367, -37.53439625450298 ] } },
{ "type": "Feature", "properties": { "id": 1005, "address": "Clintons Rd", "maxvolume": 44000.0, "strategic": "Tactical", "sub_type": "Fire Water Tank" }, "geometry": { "type": "Point", "coordinates": [ 145.285581953417278, -37.649428673522088 ] } },
{ "type": "Feature", "properties": { "id": 1006, "address": "Eltham - Yarra Glen Rd", "maxvolume": 22000.0, "strategic": "Tactical", "sub_type": "Fire Water Tank" }, "geometry": { "type": "Point", "coordinates": [ 145.304692438694019, -37.652575425093993 ] } },
{ "type": "Feature", "properties": { "id": 1007, "address": "Muir Rd", "maxvolume": 0.0, "strategic": "Strategic", "sub_type": "Dam" }, "geometry": { "type": "Point", "coordinates": [ 145.325102294881361, -37.660631779958607 ] } },
{ "type": "Feature", "properties": { "id": 169, "address": null, "maxvolume": 0.0, "strategic": "Tactical", "sub_type": "Hydrant" }, "geometry": { "type": "Point", "coordinates": [ 145.192838711436792, -37.700387722264274 ] } },
{ "type": "Feature", "properties": { "id": 1008, "address": "Ridge Rd", "maxvolume": 0.0, "strategic": "Strategic", "sub_type": "Tank" }, "geometry": { "type": "Point", "coordinates": [ 145.317197925644564, -37.659248497045596 ] } },
{ "type": "Feature", "properties": { "id": 106, "address": null, "maxvolume": 0.0, "strategic": "Tactical", "sub_type": "Tank" }, "geometry": { "type": "Point", "coordinates": [ 144.557868999, -37.650193004 ] } },
{ "type": "Feature", "properties": { "id": 1009, "address": "Ridge Rd", "maxvolume": 22000.0, "strategic": "Tactical", "sub_type": "Fire Water Tank" }, "geometry": { "type": "Point", "coordinates": [ 145.317297091955254, -37.653851465348616 ] } },
{ "type": "Feature", "properties": { "id": 23, "address": null, "maxvolume": 0.0, "strategic": "Tactical", "sub_type": "Suction Point" }, "geometry": { "type": "Point", "coordinates": [ 145.262550886855792, -37.554276051126152 ] } },
{ "type": "Feature", "properties": { "id": 24, "address": null, "maxvolume": 0.0, "strategic": "Tactical", "sub_type": "Suction Point" }, "geometry": { "type": "Point", "coordinates": [ 145.262201157222819, -37.554449741014899 ] } },
{ "type": "Feature", "properties": { "id": 1010, "address": "Eltham - Yarra Glen Rd", "maxvolume": 130000.0, "strategic": "Strategic", "sub_type": "Fire Water Tank" }, "geometry": { "type": "Point", "coordinates": [ 145.257702700841662, -37.670497091283465 ] } },
{ "type": "Feature", "properties": { "id": 1011, "address": "Westering Rd", "maxvolume": 22000.0, "strategic": "Tactical", "sub_type": "Fire Water Tank" }, "geometry": { "type": "Point", "coordinates": [ 145.271481222222974, -37.679860708776481 ] } },
{ "type": "Feature", "properties": { "id": 27, "address": "Mine Road", "maxvolume": 0.0, "strategic": "Tactical", "sub_type": "Hydrant" }, "geometry": { "type": "Point", "coordinates": [ 145.192481572011729, -37.605218143903699 ] } },
{ "type": "Feature", "properties": { "id": 28, "address": "Mine Road", "maxvolume": 0.0, "strategic": "Tactical", "sub_type": "Hydrant" }, "geometry": { "type": "Point", "coordinates": [ 145.191026088837361, -37.60709153469675 ] } },
{ "type": "Feature", "properties": { "id": 29, "address": "Mine Road", "maxvolume": 0.0, "strategic": "Tactical", "sub_type": "Hydrant" }, "geometry": { "type": "Point", "coordinates": [ 145.18982084174533, -37.607580272930676 ] } },
{ "type": "Feature", "properties": { "id": 1012, "address": "Simpson Rd", "maxvolume": 0.0, "strategic": "Tactical", "sub_type": "Hydrant" }, "geometry": { "type": "Point", "coordinates": [ 145.30284725749118, -37.680600493117751 ] } },
{ "type": "Feature", "properties": { "id": 1013, "address": "Skyline Rd South", "maxvolume": 80000.0, "strategic": "Tactical", "sub_type": "Fire Water Tank" }, "geometry": { "type": "Point", "coordinates": [ 145.330597762012303, -37.673023463959474 ] } },
{ "type": "Feature", "properties": { "id": 1014, "address": "Calwell Rd", "maxvolume": 0.0, "strategic": "Strategic", "sub_type": "Hydrant" }, "geometry": { "type": "Point", "coordinates": [ 145.261747703578408, -37.692374807910539 ] } },
{ "type": "Feature", "properties": { "id": 33, "address": "Smiths Gully Road", "maxvolume": 0.0, "strategic": "Strategic", "sub_type": "Dam" }, "geometry": { "type": "Point", "coordinates": [ 145.275738836750548, -37.623159242858584 ] } },
{ "type": "Feature", "properties": { "id": 1015, "address": "Skyline Rd South", "maxvolume": 22000.0, "strategic": "Tactical", "sub_type": "Fire Water Tank" }, "geometry": { "type": "Point", "coordinates": [ 145.297626861244851, -37.691883399421428 ] } },
{ "type": "Feature", "properties": { "id": 35, "address": "Yaralla Road", "maxvolume": 0.0, "strategic": "Strategic", "sub_type": "Dam" }, "geometry": { "type": "Point", "coordinates": [ 145.22805059291241, -37.650934096660301 ] } },
{ "type": "Feature", "properties": { "id": 1016, "address": "DONNYBROOK RD", "maxvolume": 0.0, "strategic": "Tactical", "sub_type": "Hydrant" }, "geometry": { "type": "Point", "coordinates": [ 145.082108049505962, -37.554812205844719 ] } },
{ "type": "Feature", "properties": { "id": 1017, "address": "OLD PLENTY RD", "maxvolume": 22000.0, "strategic": "Strategic", "sub_type": "Fire Water Tank" }, "geometry": { "type": "Point", "coordinates": [ 145.107528074961522, -37.571608474813509 ] } },
{ "type": "Feature", "properties": { "id": 1018, "address": "GRANTS RD", "maxvolume": 0.0, "strategic": "Strategic", "sub_type": "Dam" }, "geometry": { "type": "Point", "coordinates": [ 145.096603375055366, -37.528704466032778 ] } },
{ "type": "Feature", "properties": { "id": 39, "address": "Long Gully Road", "maxvolume": 0.0, "strategic": "Tactical", "sub_type": "Dam" }, "geometry": { "type": "Point", "coordinates": [ 145.251729687315247, -37.638696412048731 ] } },
{ "type": "Feature", "properties": { "id": 1019, "address": "School Ridge Rd", "maxvolume": 0.0, "strategic": "Tactical", "sub_type": "Tank" }, "geometry": { "type": "Point", "coordinates": [ 145.269322530166761, -37.548247639330171 ] } },
{ "type": "Feature", "properties": { "id": 1020, "address": "Hildebrand Rd", "maxvolume": 22000.0, "strategic": "Tactical", "sub_type": "Fire Water Tank" }, "geometry": { "type": "Point", "coordinates": [ 145.216858966248964, -37.600990150656294 ] } },
{ "type": "Feature", "properties": { "id": 1021, "address": "Cottles Bridge - Strathewen Rd", "maxvolume": 120000.0, "strategic": "Strategic", "sub_type": "Fire Water Tank" }, "geometry": { "type": "Point", "coordinates": [ 145.217590423021278, -37.621909979182938 ] } },
{ "type": "Feature", "properties": { "id": 43, "address": "Sprys Lane", "maxvolume": 0.0, "strategic": "Tactical", "sub_type": "Dam" }, "geometry": { "type": "Point", "coordinates": [ 145.198795876986452, -37.64558279178528 ] } },
{ "type": "Feature", "properties": { "id": 44, "address": "Knowle Grove", "maxvolume": 0.0, "strategic": "Tactical", "sub_type": "Hydrant" }, "geometry": { "type": "Point", "coordinates": [ 145.186881068333008, -37.639858784508299 ] } },
{ "type": "Feature", "properties": { "id": 1022, "address": "Barreenong Rd", "maxvolume": 0.0, "strategic": "Strategic", "sub_type": "Dam" }, "geometry": { "type": "Point", "coordinates": [ 145.201648730720507, -37.617357070947563 ] } },
{ "type": "Feature", "properties": { "id": 46, "address": "Greysharps Road", "maxvolume": 0.0, "strategic": "Tactical", "sub_type": "Hydrant" }, "geometry": { "type": "Point", "coordinates": [ 145.189811329140014, -37.640766886111109 ] } },
{ "type": "Feature", "properties": { "id": 1023, "address": "Cottles Bridge - Strathewen Rd", "maxvolume": 0.0, "strategic": "Strategic", "sub_type": "Dam" }, "geometry": { "type": "Point", "coordinates": [ 145.212339755311092, -37.617537590959564 ] } },
{ "type": "Feature", "properties": { "id": 1024, "address": "Kangaroo Ground - St Andrews Road", "maxvolume": 130000.0, "strategic": "Strategic", "sub_type": "Fire Water Tank" }, "geometry": { "type": "Point", "coordinates": [ 145.259112047755195, -37.623378810096888 ] } },
{ "type": "Feature", "properties": { "id": 1025, "address": "Goldmans", "maxvolume": 130000.0, "strategic": "Strategic", "sub_type": "Fire Water Tank" }, "geometry": { "type": "Point", "coordinates": [ 145.245521840339848, -37.614319630859178 ] } },
{ "type": "Feature", "properties": { "id": 1026, "address": "Kangaroo Ground - St Andrews Road", "maxvolume": 35000.0, "strategic": "Tactical", "sub_type": "Fire Water Tank" }, "geometry": { "type": "Point", "coordinates": [ 145.239112401136651, -37.642511718869756 ] } },
{ "type": "Feature", "properties": { "id": 1027, "address": "Kangaroo Ground - St Andrews Road", "maxvolume": 0.0, "strategic": "Strategic", "sub_type": "Hydrant" }, "geometry": { "type": "Point", "coordinates": [ 145.24440027416702, -37.637455017431421 ] } },
{ "type": "Feature", "properties": { "id": 1028, "address": "Kangaroo Ground - St Andrews Road", "maxvolume": 0.0, "strategic": "Strategic", "sub_type": "Hydrant" }, "geometry": { "type": "Point", "coordinates": [ 145.243394493035254, -37.638341713371162 ] } },
{ "type": "Feature", "properties": { "id": 53, "address": "Millett  Road", "maxvolume": 22000.0, "strategic": "Tactical", "sub_type": "Fire Water Tank" }, "geometry": { "type": "Point", "coordinates": [ 144.63841504017725, -37.555320806968631 ] } },
{ "type": "Feature", "properties": { "id": 1029, "address": "Long Gully Rd", "maxvolume": 130000.0, "strategic": "Strategic", "sub_type": "Fire Water Tank" }, "geometry": { "type": "Point", "coordinates": [ 145.260067462571953, -37.640755061837631 ] } },
{ "type": "Feature", "properties": { "id": 55, "address": "Chadds Creek Road", "maxvolume": 0.0, "strategic": "Tactical", "sub_type": "Fire Water Tank" }, "geometry": { "type": "Point", "coordinates": [ 145.267027600394783, -37.547928203553568 ] } },
{ "type": "Feature", "properties": { "id": 1030, "address": "Bellfields Rd", "maxvolume": 130000.0, "strategic": "Strategic", "sub_type": "Fire Water Tank" }, "geometry": { "type": "Point", "coordinates": [ 145.229178587993118, -37.620677368119857 ] } },
{ "type": "Feature", "properties": { "id": 1031, "address": "Springhill Rd", "maxvolume": 130000.0, "strategic": "Strategic", "sub_type": "Fire Water Tank" }, "geometry": { "type": "Point", "coordinates": [ 145.177148959116153, -37.636098933553654 ] } },
{ "type": "Feature", "properties": { "id": 1032, "address": "Graysharps Rd", "maxvolume": 5000000.0, "strategic": "Strategic", "sub_type": "Dam" }, "geometry": { "type": "Point", "coordinates": [ 145.188441618305973, -37.642670966622688 ] } },
{ "type": "Feature", "properties": { "id": 1033, "address": "Main Rd", "maxvolume": 225000.0, "strategic": "Strategic", "sub_type": "Tank" }, "geometry": { "type": "Point", "coordinates": [ 145.197339065094724, -37.634651848093732 ] } },
{ "type": "Feature", "properties": { "id": 1034, "address": "Hurstbridge - Arthurs Creek Road", "maxvolume": 130000.0, "strategic": "Strategic", "sub_type": "Fire Water Tank" }, "geometry": { "type": "Point", "coordinates": [ 145.192282957742719, -37.621634936187782 ] } },
{ "type": "Feature", "properties": { "id": 1035, "address": "Christian Rd", "maxvolume": 0.0, "strategic": "Strategic", "sub_type": "Dam" }, "geometry": { "type": "Point", "coordinates": [ 145.197210451266869, -37.63130350018487 ] } },
{ "type": "Feature", "properties": { "id": 1036, "address": "Laceys Rd", "maxvolume": 10000.0, "strategic": "Tactical", "sub_type": "Tank" }, "geometry": { "type": "Point", "coordinates": [ 145.213723257714832, -37.630265963105579 ] } },
{ "type": "Feature", "properties": { "id": 1037, "address": "DONNYBROOK RD", "maxvolume": 22000.0, "strategic": "Tactical", "sub_type": "Tank" }, "geometry": { "type": "Point", "coordinates": [ 145.033706344181581, -37.548674844159109 ] } },
{ "type": "Feature", "properties": { "id": 1038, "address": "DONNYBROOK RD", "maxvolume": 22000.0, "strategic": "Tactical", "sub_type": "Tank" }, "geometry": { "type": "Point", "coordinates": [ 145.033595230391683, -37.548655303956359 ] } },
{ "type": "Feature", "properties": { "id": 64, "address": "Mittons Bridge Rd", "maxvolume": 10000.0, "strategic": "Tactical", "sub_type": "Tank" }, "geometry": { "type": "Point", "coordinates": [ 145.270459089798379, -37.576862190423135 ] } },
{ "type": "Feature", "properties": { "id": 65, "address": "Black Hill Road", "maxvolume": 0.0, "strategic": "Tactical", "sub_type": "Fire Water Tank" }, "geometry": { "type": "Point", "coordinates": [ 144.62570459249298, -37.58598142670143 ] } },
{ "type": "Feature", "properties": { "id": 66, "address": "Hurstbridge - Arthurs Creek Road", "maxvolume": 0.0, "strategic": "Tactical", "sub_type": "Hydrant" }, "geometry": { "type": "Point", "coordinates": [ 145.192902910599344, -37.597782675541239 ] } },
{ "type": "Feature", "properties": { "id": 67, "address": "Hurstbridge - Arthurs Creek Road", "maxvolume": 0.0, "strategic": "Tactical", "sub_type": "Hydrant" }, "geometry": { "type": "Point", "coordinates": [ 145.200162058285457, -37.59140346573637 ] } },
{ "type": "Feature", "properties": { "id": 1039, "address": "Chads Creek Rd", "maxvolume": 44000.0, "strategic": "Tactical", "sub_type": "Fire Water Tank" }, "geometry": { "type": "Point", "coordinates": [ 145.267033053251055, -37.547824299955465 ] } },
{ "type": "Feature", "properties": { "id": 1040, "address": "Cottles Bridge - Strathewen Rd", "maxvolume": 0.0, "strategic": "Tactical", "sub_type": "Hydrant" }, "geometry": { "type": "Point", "coordinates": [ 145.26167965049126, -37.554549031768978 ] } },
{ "type": "Feature", "properties": { "id": 1041, "address": "Cottles Bridge - Strathewen Road", "maxvolume": 0.0, "strategic": "Strategic", "sub_type": "Dam" }, "geometry": { "type": "Point", "coordinates": [ 145.247675470991197, -37.568273839399581 ] } },
{ "type": "Feature", "properties": { "id": 1042, "address": "Mullers Rd", "maxvolume": 0.0, "strategic": "Strategic", "sub_type": "Dam" }, "geometry": { "type": "Point", "coordinates": [ 145.284166219606647, -37.573379557843765 ] } },
{ "type": "Feature", "properties": { "id": 1043, "address": "Jacksons Road", "maxvolume": 0.0, "strategic": "Strategic", "sub_type": "Dam" }, "geometry": { "type": "Point", "coordinates": [ 145.286555276409786, -37.564491875393855 ] } },
{ "type": "Feature", "properties": { "id": 73, "address": "WATTS LANE", "maxvolume": 0.0, "strategic": "Tactical", "sub_type": "Dam" }, "geometry": { "type": "Point", "coordinates": [ 145.239021968865444, -37.603011164120339 ] } },
{ "type": "Feature", "properties": { "id": 1044, "address": "Jacksons Road", "maxvolume": 130000.0, "strategic": "Strategic", "sub_type": "Fire Water Tank" }, "geometry": { "type": "Point", "coordinates": [ 145.286560708356745, -37.560301129383852 ] } },
{ "type": "Feature", "properties": { "id": 1045, "address": "Bald Spur Road", "maxvolume": 44000.0, "strategic": "Tactical", "sub_type": "Fire Water Tank" }, "geometry": { "type": "Point", "coordinates": [ 145.299253804020822, -37.559718642903853 ] } },
{ "type": "Feature", "properties": { "id": 1046, "address": "Bald Spur Road", "maxvolume": 120000.0, "strategic": "Tactical", "sub_type": "Fire Water Tank" }, "geometry": { "type": "Point", "coordinates": [ 145.30720193201978, -37.550583985230844 ] } },
{ "type": "Feature", "properties": { "id": 1047, "address": "MERRIANG RD", "maxvolume": 22000.0, "strategic": "Strategic", "sub_type": "Fire Water Tank" }, "geometry": { "type": "Point", "coordinates": [ 145.025884225450056, -37.509872802307278 ] } },
{ "type": "Feature", "properties": { "id": 78, "address": null, "maxvolume": 0.0, "strategic": "Tactical", "sub_type": "Hydrant" }, "geometry": { "type": "Point", "coordinates": [ 145.217486972094008, -37.717686980539007 ] } },
{ "type": "Feature", "properties": { "id": 1048, "address": "Hewitts Rd", "maxvolume": 130000.0, "strategic": "Tactical", "sub_type": "Fire Water Tank" }, "geometry": { "type": "Point", "coordinates": [ 145.265171534053906, -37.575084615273965 ] } },
{ "type": "Feature", "properties": { "id": 170, "address": null, "maxvolume": 0.0, "strategic": "Tactical", "sub_type": "Hydrant BP" }, "geometry": { "type": "Point", "coordinates": [ 145.192905465416686, -37.699974183547553 ] } },
{ "type": "Feature", "properties": { "id": 1049, "address": "Hildebrand Rd", "maxvolume": 0.0, "strategic": "Strategic", "sub_type": "Dam" }, "geometry": { "type": "Point", "coordinates": [ 145.236629668138619, -37.591208428192822 ] } },
{ "type": "Feature", "properties": { "id": 1050, "address": "Hildebrand Rd", "maxvolume": 22000.0, "strategic": "Tactical", "sub_type": "Fire Water Tank" }, "geometry": { "type": "Point", "coordinates": [ 145.250343460963677, -37.584259712033003 ] } },
{ "type": "Feature", "properties": { "id": 1051, "address": "Charlber Ln", "maxvolume": 0.0, "strategic": "Strategic", "sub_type": "Dam" }, "geometry": { "type": "Point", "coordinates": [ 145.251670193873764, -37.604770641461002 ] } },
{ "type": "Feature", "properties": { "id": 132, "address": null, "maxvolume": 22000.0, "strategic": "Tactical", "sub_type": "Fire Water Tank" }, "geometry": { "type": "Point", "coordinates": [ 145.304236153571225, -37.509143798220755 ] } },
{ "type": "Feature", "properties": { "id": 122, "address": "580 Ridge Road", "maxvolume": null, "strategic": "Tactical", "sub_type": "Tank" }, "geometry": { "type": "Point", "coordinates": [ 145.308846376340682, -37.664015493278633 ] } },
{ "type": "Feature", "properties": { "id": 1052, "address": "Youngs Rd", "maxvolume": 80000.0, "strategic": "Tactical", "sub_type": "Fire Water Tank" }, "geometry": { "type": "Point", "coordinates": [ 145.24483659400147, -37.607439219476674 ] } },
{ "type": "Feature", "properties": { "id": 85, "address": "Stockdale Rd", "maxvolume": 20000.0, "strategic": "Tactical", "sub_type": "Fire Water Tank" }, "geometry": { "type": "Point", "coordinates": [ 144.906102521019193, -37.409779723601531 ] } },
{ "type": "Feature", "properties": { "id": 86, "address": "Old Sydney Rd", "maxvolume": 20000.0, "strategic": "Tactical", "sub_type": "Fire Water Tank" }, "geometry": { "type": "Point", "coordinates": [ 144.963783151395802, -37.3780692816824 ] } },
{ "type": "Feature", "properties": { "id": 87, "address": "Old Sydney Road", "maxvolume": 20000.0, "strategic": "Tactical", "sub_type": "Fire Water Tank" }, "geometry": { "type": "Point", "coordinates": [ 144.92563714340568, -37.463411851227924 ] } },
{ "type": "Feature", "properties": { "id": 1053, "address": "Charlber Ln", "maxvolume": 0.0, "strategic": "Strategic", "sub_type": "Dam" }, "geometry": { "type": "Point", "coordinates": [ 145.25300425591405, -37.600040852326131 ] } },
{ "type": "Feature", "properties": { "id": 89, "address": null, "maxvolume": 0.0, "strategic": "Tactical", "sub_type": "Hydrant" }, "geometry": { "type": "Point", "coordinates": [ 145.178075507365008, -37.701857660147105 ] } },
{ "type": "Feature", "properties": { "id": 90, "address": "Parsons Road", "maxvolume": 0.0, "strategic": "Tactical", "sub_type": "Hydrant" }, "geometry": { "type": "Point", "coordinates": [ 145.170219997156295, -37.701850238743305 ] } },
{ "type": "Feature", "properties": { "id": 1054, "address": "Watts Ln", "maxvolume": 0.0, "strategic": "Strategic", "sub_type": "Water Course" }, "geometry": { "type": "Point", "coordinates": [ 145.240156943935659, -37.606383926760024 ] } },
{ "type": "Feature", "properties": { "id": 1055, "address": "Cleeve Crt", "maxvolume": 0.0, "strategic": "Strategic", "sub_type": "Dam" }, "geometry": { "type": "Point", "coordinates": [ 145.243540425122887, -37.599314537951365 ] } },
{ "type": "Feature", "properties": { "id": 1056, "address": "Chase Rd", "maxvolume": 0.0, "strategic": "Tactical", "sub_type": "Fire Water Tank" }, "geometry": { "type": "Point", "coordinates": [ 145.21742219097527, -37.719562195703915 ] } },
{ "type": "Feature", "properties": { "id": 94, "address": null, "maxvolume": 0.0, "strategic": "Tactical", "sub_type": "Hydrant" }, "geometry": { "type": "Point", "coordinates": [ 145.214850737743006, -37.690931770154684 ] } },
{ "type": "Feature", "properties": { "id": 95, "address": null, "maxvolume": 0.0, "strategic": "Tactical", "sub_type": "Hydrant" }, "geometry": { "type": "Point", "coordinates": [ 145.215275036193987, -37.691369261632893 ] } },
{ "type": "Feature", "properties": { "id": 96, "address": null, "maxvolume": 0.0, "strategic": "Tactical", "sub_type": "Hydrant BP" }, "geometry": { "type": "Point", "coordinates": [ 145.215531092537702, -37.691334453335195 ] } },
{ "type": "Feature", "properties": { "id": 97, "address": null, "maxvolume": 0.0, "strategic": "Tactical", "sub_type": "Hydrant" }, "geometry": { "type": "Point", "coordinates": [ 145.214563902579954, -37.691268367681054 ] } },
{ "type": "Feature", "properties": { "id": 1057, "address": "Danita Drive", "maxvolume": 0.0, "strategic": "Strategic", "sub_type": "Dam" }, "geometry": { "type": "Point", "coordinates": [ 145.209071288691689, -37.722986303529126 ] } },
{ "type": "Feature", "properties": { "id": 99, "address": "Clonbinane Road", "maxvolume": 20000.0, "strategic": "Tactical", "sub_type": "Fire Water Tank" }, "geometry": { "type": "Point", "coordinates": [ 145.065832056896966, -37.316118882700081 ] } },
{ "type": "Feature", "properties": { "id": 100, "address": "Clonbinane Road", "maxvolume": 20000.0, "strategic": "Tactical", "sub_type": "Fire Water Tank" }, "geometry": { "type": "Point", "coordinates": [ 145.065873384970075, -37.316145485809841 ] } },
{ "type": "Feature", "properties": { "id": 101, "address": "Spur Rd", "maxvolume": 20000.0, "strategic": "Strategic", "sub_type": "Fire Water Tank" }, "geometry": { "type": "Point", "coordinates": [ 145.058282599657701, -37.28708402214675 ] } },
{ "type": "Feature", "properties": { "id": 102, "address": "KOOS ROAD", "maxvolume": 0.0, "strategic": "Tactical", "sub_type": "Dam" }, "geometry": { "type": "Point", "coordinates": [ 145.231144950610627, -37.666688205961997 ] } },
{ "type": "Feature", "properties": { "id": 1058, "address": "Kangaroo Ground - Warrandyte Rd", "maxvolume": 130000.0, "strategic": "Tactical", "sub_type": "Fire Water Tank" }, "geometry": { "type": "Point", "coordinates": [ 145.224972830790733, -37.715088298454795 ] } },
{ "type": "Feature", "properties": { "id": 1059, "address": "Joslyn Drv", "maxvolume": 0.0, "strategic": "Strategic", "sub_type": "Dam" }, "geometry": { "type": "Point", "coordinates": [ 145.199184222881513, -37.709551127603014 ] } },
{ "type": "Feature", "properties": { "id": 1060, "address": "Bells Hill Rd", "maxvolume": 0.0, "strategic": "Strategic", "sub_type": "Dam" }, "geometry": { "type": "Point", "coordinates": [ 145.194388554290185, -37.707567172498763 ] } },
{ "type": "Feature", "properties": { "id": 1061, "address": "Reynolds Rd", "maxvolume": 0.0, "strategic": "Strategic", "sub_type": "Dam" }, "geometry": { "type": "Point", "coordinates": [ 145.173737353275357, -37.722596748413125 ] } },
{ "type": "Feature", "properties": { "id": 1062, "address": "Gum Tree Rd", "maxvolume": 40000.0, "strategic": "Tactical", "sub_type": "Tank" }, "geometry": { "type": "Point", "coordinates": [ 145.186484831116587, -37.717692698027427 ] } },
{ "type": "Feature", "properties": { "id": 1063, "address": "Mount Pleasant Rd", "maxvolume": 0.0, "strategic": "Strategic", "sub_type": "Dam" }, "geometry": { "type": "Point", "coordinates": [ 145.188398953536534, -37.719686792288663 ] } },
{ "type": "Feature", "properties": { "id": 110, "address": null, "maxvolume": 35000.0, "strategic": "Tactical", "sub_type": "Fire Water Tank" }, "geometry": { "type": "Point", "coordinates": [ 144.95117265693986, -37.540268331127429 ] } },
{ "type": "Feature", "properties": { "id": 111, "address": null, "maxvolume": 35000.0, "strategic": "Tactical", "sub_type": "Fire Water Tank" }, "geometry": { "type": "Point", "coordinates": [ 144.951163691143819, -37.540317692825852 ] } },
{ "type": "Feature", "properties": { "id": 112, "address": "Brookville Dr", "maxvolume": 35000.0, "strategic": "Tactical", "sub_type": "Fire Water Tank" }, "geometry": { "type": "Point", "coordinates": [ 144.948922250556421, -37.557186396638308 ] } },
{ "type": "Feature", "properties": { "id": 113, "address": "Donnybrook Road", "maxvolume": 35000.0, "strategic": "Tactical", "sub_type": "Fire Water Tank" }, "geometry": { "type": "Point", "coordinates": [ 144.954127869824219, -37.541806330562878 ] } },
{ "type": "Feature", "properties": { "id": 114, "address": "Donna Buang Road", "maxvolume": 22500.0, "strategic": "Tactical", "sub_type": "Fire Water Tank" }, "geometry": { "type": "Point", "coordinates": [ 145.611124582862885, -37.705895811345314 ] } },
{ "type": "Feature", "properties": { "id": 115, "address": "Capstone Drive", "maxvolume": 22000.0, "strategic": "Tactical", "sub_type": "Fire Water Tank" }, "geometry": { "type": "Point", "coordinates": [ 145.105140057356891, -37.456105775342834 ] } },
{ "type": "Feature", "properties": { "id": 1064, "address": "Orme Rd", "maxvolume": 0.0, "strategic": "Tactical", "sub_type": "Dam" }, "geometry": { "type": "Point", "coordinates": [ 145.175511108043509, -37.687747044450482 ] } },
{ "type": "Feature", "properties": { "id": 1065, "address": "Kangaroo Ground - Warrandyte Rd", "maxvolume": 0.0, "strategic": "Strategic", "sub_type": "Hydrant" }, "geometry": { "type": "Point", "coordinates": [ 145.222648170893279, -37.709348518325754 ] } },
{ "type": "Feature", "properties": { "id": 1066, "address": "Menzies Rd", "maxvolume": 0.0, "strategic": "Tactical", "sub_type": "Hydrant" }, "geometry": { "type": "Point", "coordinates": [ 145.238973022925478, -37.704032979911716 ] } },
{ "type": "Feature", "properties": { "id": 1067, "address": "Graham Rd", "maxvolume": 0.0, "strategic": "Tactical", "sub_type": "Tank" }, "geometry": { "type": "Point", "coordinates": [ 145.212872908925306, -37.690987442161905 ] } },
{ "type": "Feature", "properties": { "id": 120, "address": "Macgregor Rd", "maxvolume": 0.0, "strategic": "Tactical", "sub_type": "Dam" }, "geometry": { "type": "Point", "coordinates": [ 145.037732303545567, -37.4597354743509 ] } },
{ "type": "Feature", "properties": { "id": 1068, "address": "Graham Rd", "maxvolume": 0.0, "strategic": "Strategic", "sub_type": "Dam" }, "geometry": { "type": "Point", "coordinates": [ 145.202841487263186, -37.689635839728112 ] } },
{ "type": "Feature", "properties": { "id": 1069, "address": "Watery Gully Rd", "maxvolume": 0.0, "strategic": "Strategic", "sub_type": "Dam" }, "geometry": { "type": "Point", "coordinates": [ 145.193288214610419, -37.668779670749515 ] } },
{ "type": "Feature", "properties": { "id": 123, "address": "Seventeenth Av", "maxvolume": 0.0, "strategic": "Tactical", "sub_type": "Dam" }, "geometry": { "type": "Point", "coordinates": [ 145.062228640139665, -37.468574050452048 ] } },
{ "type": "Feature", "properties": { "id": 124, "address": "Wallan Rd", "maxvolume": 0.0, "strategic": "Tactical", "sub_type": "Dam" }, "geometry": { "type": "Point", "coordinates": [ 145.065148557160228, -37.454135774046676 ] } },
{ "type": "Feature", "properties": { "id": 125, "address": "Wallan Road", "maxvolume": 22000.0, "strategic": "Tactical", "sub_type": "Fire Water Tank" }, "geometry": { "type": "Point", "coordinates": [ 145.070380126350102, -37.456261832590727 ] } },
{ "type": "Feature", "properties": { "id": 1070, "address": "Mooney Rd", "maxvolume": 22000.0, "strategic": "Tactical", "sub_type": "Fire Water Tank" }, "geometry": { "type": "Point", "coordinates": [ 145.113326235007719, -37.642734817154633 ] } },
{ "type": "Feature", "properties": { "id": 127, "address": "Stewart St", "maxvolume": 20000.0, "strategic": "Tactical", "sub_type": "Fire Water Tank" }, "geometry": { "type": "Point", "coordinates": [ 144.985024281054734, -37.472120845276294 ] } },
{ "type": "Feature", "properties": { "id": 1071, "address": "Mooney Rd", "maxvolume": 22000.0, "strategic": "Tactical", "sub_type": "Fire Water Tank" }, "geometry": { "type": "Point", "coordinates": [ 145.113313766480928, -37.642779678664716 ] } },
{ "type": "Feature", "properties": { "id": 130, "address": "Extons Road", "maxvolume": 25000.0, "strategic": "Tactical", "sub_type": "Fire Water Tank" }, "geometry": { "type": "Point", "coordinates": [ 145.325675843101664, -37.478166055523765 ] } },
{ "type": "Feature", "properties": { "id": 131, "address": "Bald Spur Road", "maxvolume": 45000.0, "strategic": "Tactical", "sub_type": "Fire Water Tank" }, "geometry": { "type": "Point", "coordinates": [ 145.323067260772632, -37.523264267273539 ] } },
{ "type": "Feature", "properties": { "id": 133, "address": "Whittlesea - Kinglake Rd", "maxvolume": 80000.0, "strategic": "Strategic", "sub_type": "Fire Water Tank" }, "geometry": { "type": "Point", "coordinates": [ 145.315099826743108, -37.507155363489652 ] } },
{ "type": "Feature", "properties": { "id": 134, "address": "Whittlesea - Kinglake Rd", "maxvolume": 80000.0, "strategic": "Strategic", "sub_type": "Fire Water Tank" }, "geometry": { "type": "Point", "coordinates": [ 145.315058727903619, -37.507227256683471 ] } },
{ "type": "Feature", "properties": { "id": 135, "address": "Extons Road", "maxvolume": 225000.0, "strategic": "Strategic", "sub_type": "Fire Water Tank" }, "geometry": { "type": "Point", "coordinates": [ 145.315249083000026, -37.508221798000022 ] } },
{ "type": "Feature", "properties": { "id": 136, "address": "Extons Road", "maxvolume": 27500.0, "strategic": "Tactical", "sub_type": "Fire Water Tank" }, "geometry": { "type": "Point", "coordinates": [ 145.315160321928886, -37.508193042290223 ] } },
{ "type": "Feature", "properties": { "id": 137, "address": "Extons Road", "maxvolume": 22000.0, "strategic": "Tactical", "sub_type": "Tank" }, "geometry": { "type": "Point", "coordinates": [ 145.316251771420298, -37.510183184471778 ] } },
{ "type": "Feature", "properties": { "id": 138, "address": "Extons Road", "maxvolume": 22000.0, "strategic": "Tactical", "sub_type": "Tank" }, "geometry": { "type": "Point", "coordinates": [ 145.316227396756204, -37.510212195996736 ] } },
{ "type": "Feature", "properties": { "id": 139, "address": "Pinchgut Lane", "maxvolume": 22000.0, "strategic": "Tactical", "sub_type": "Fire Water Tank" }, "geometry": { "type": "Point", "coordinates": [ 145.339992887210457, -37.537396121436274 ] } },
{ "type": "Feature", "properties": { "id": 140, "address": "Pinchgut Lane", "maxvolume": 45000.0, "strategic": "Tactical", "sub_type": "Fire Water Tank" }, "geometry": { "type": "Point", "coordinates": [ 145.339996703087536, -37.537452703311963 ] } },
{ "type": "Feature", "properties": { "id": 141, "address": null, "maxvolume": 22000.0, "strategic": "Tactical", "sub_type": "Fire Water Tank" }, "geometry": { "type": "Point", "coordinates": [ 145.351492751863049, -37.536386366974547 ] } },
{ "type": "Feature", "properties": { "id": 142, "address": "Mountain Home Road", "maxvolume": 22000.0, "strategic": "Tactical", "sub_type": "Fire Water Tank" }, "geometry": { "type": "Point", "coordinates": [ 145.357850895309923, -37.534806666939204 ] } },
{ "type": "Feature", "properties": { "id": 143, "address": "Mountain Home rd", "maxvolume": 22000.0, "strategic": "Tactical", "sub_type": "Fire Water Tank" }, "geometry": { "type": "Point", "coordinates": [ 145.357688859159623, -37.534807076791118 ] } },
{ "type": "Feature", "properties": { "id": 144, "address": "Lawrey Rd", "maxvolume": 22000.0, "strategic": "Tactical", "sub_type": "Fire Water Tank" }, "geometry": { "type": "Point", "coordinates": [ 145.349232345796736, -37.525908044972752 ] } },
{ "type": "Feature", "properties": { "id": 145, "address": "Morris Court", "maxvolume": 0.0, "strategic": "Strategic", "sub_type": "Suction Point" }, "geometry": { "type": "Point", "coordinates": [ 145.33889214287197, -37.523595814756057 ] } },
{ "type": "Feature", "properties": { "id": 146, "address": "Goodall Street", "maxvolume": 80000.0, "strategic": "Strategic", "sub_type": "Fire Water Tank" }, "geometry": { "type": "Point", "coordinates": [ 145.356450713999948, -37.521806502999979 ] } },
{ "type": "Feature", "properties": { "id": 147, "address": "Goodall Street", "maxvolume": 80000.0, "strategic": "Strategic", "sub_type": "Fire Water Tank" }, "geometry": { "type": "Point", "coordinates": [ 145.35654424400002, -37.521806503 ] } },
{ "type": "Feature", "properties": { "id": 148, "address": "McMahons Road", "maxvolume": 22000.0, "strategic": "Tactical", "sub_type": "Fire Water Tank" }, "geometry": { "type": "Point", "coordinates": [ 145.353569369880944, -37.522202481027939 ] } },
{ "type": "Feature", "properties": { "id": 149, "address": "Humevale Road", "maxvolume": 22000.0, "strategic": "Tactical", "sub_type": "Fire Water Tank" }, "geometry": { "type": "Point", "coordinates": [ 145.224114135595386, -37.487306371997533 ] } },
{ "type": "Feature", "properties": { "id": 150, "address": "Humevale Road", "maxvolume": 22000.0, "strategic": "Tactical", "sub_type": "Fire Water Tank" }, "geometry": { "type": "Point", "coordinates": [ 145.224171029181235, -37.487263268370562 ] } },
{ "type": "Feature", "properties": { "id": 151, "address": null, "maxvolume": 0.0, "strategic": "Tactical", "sub_type": "Hydrant" }, "geometry": { "type": "Point", "coordinates": [ 145.213949564297025, -37.447170301058343 ] } },
{ "type": "Feature", "properties": { "id": 152, "address": "Road 22", "maxvolume": 0.0, "strategic": "Strategic", "sub_type": "Water Course" }, "geometry": { "type": "Point", "coordinates": [ 145.250063805344553, -37.427278809840523 ] } },
{ "type": "Feature", "properties": { "id": 1072, "address": "SIXTH AV", "maxvolume": 22000.0, "strategic": "Tactical", "sub_type": "Fire Water Tank" }, "geometry": { "type": "Point", "coordinates": [ 145.073889439418821, -37.496072443278962 ] } },
{ "type": "Feature", "properties": { "id": 154, "address": null, "maxvolume": 0.0, "strategic": "Tactical", "sub_type": "Hydrant" }, "geometry": { "type": "Point", "coordinates": [ 145.183711088376924, -37.702788387583354 ] } },
{ "type": "Feature", "properties": { "id": 155, "address": null, "maxvolume": 0.0, "strategic": "Tactical", "sub_type": "Hydrant" }, "geometry": { "type": "Point", "coordinates": [ 145.182786221625491, -37.703765964876993 ] } },
{ "type": "Feature", "properties": { "id": 156, "address": null, "maxvolume": 0.0, "strategic": "Tactical", "sub_type": "Hydrant" }, "geometry": { "type": "Point", "coordinates": [ 145.181411920622082, -37.703412510066876 ] } },
{ "type": "Feature", "properties": { "id": 1073, "address": "SIXTH AV", "maxvolume": 22000.0, "strategic": "Tactical", "sub_type": "Fire Water Tank" }, "geometry": { "type": "Point", "coordinates": [ 145.073832949111477, -37.496063614026347 ] } },
{ "type": "Feature", "properties": { "id": 158, "address": null, "maxvolume": 0.0, "strategic": "Tactical", "sub_type": "Hydrant" }, "geometry": { "type": "Point", "coordinates": [ 145.186837448463706, -37.699502490712057 ] } },
{ "type": "Feature", "properties": { "id": 159, "address": null, "maxvolume": 0.0, "strategic": "Tactical", "sub_type": "Hydrant" }, "geometry": { "type": "Point", "coordinates": [ 145.186453414067898, -37.69990213255258 ] } },
{ "type": "Feature", "properties": { "id": 160, "address": null, "maxvolume": 0.0, "strategic": "Private", "sub_type": "Hydrant" }, "geometry": { "type": "Point", "coordinates": [ 145.185931202741813, -37.699921133847688 ] } },
{ "type": "Feature", "properties": { "id": 161, "address": null, "maxvolume": 0.0, "strategic": "Tactical", "sub_type": "Hydrant" }, "geometry": { "type": "Point", "coordinates": [ 145.192382516372504, -37.70095750950442 ] } },
{ "type": "Feature", "properties": { "id": 162, "address": null, "maxvolume": 0.0, "strategic": "Tactical", "sub_type": "Hydrant" }, "geometry": { "type": "Point", "coordinates": [ 145.191508591938089, -37.70098015373005 ] } },
{ "type": "Feature", "properties": { "id": 163, "address": null, "maxvolume": 0.0, "strategic": "Tactical", "sub_type": "Hydrant" }, "geometry": { "type": "Point", "coordinates": [ 145.191777516501304, -37.700182191962675 ] } },
{ "type": "Feature", "properties": { "id": 165, "address": null, "maxvolume": 0.0, "strategic": "Tactical", "sub_type": "Hydrant" }, "geometry": { "type": "Point", "coordinates": [ 145.193174885119589, -37.701023730915843 ] } },
{ "type": "Feature", "properties": { "id": 166, "address": null, "maxvolume": 0.0, "strategic": "Tactical", "sub_type": "Hydrant" }, "geometry": { "type": "Point", "coordinates": [ 145.194091539869589, -37.701109875606775 ] } },
{ "type": "Feature", "properties": { "id": 167, "address": null, "maxvolume": 0.0, "strategic": "Tactical", "sub_type": "Hydrant" }, "geometry": { "type": "Point", "coordinates": [ 145.194097035246699, -37.700416018855776 ] } },
{ "type": "Feature", "properties": { "id": 168, "address": null, "maxvolume": 0.0, "strategic": "Tactical", "sub_type": "Hydrant" }, "geometry": { "type": "Point", "coordinates": [ 145.193351774367187, -37.700278427948334 ] } },
{ "type": "Feature", "properties": { "id": 1074, "address": "BRUCES CREEK RD", "maxvolume": 22000.0, "strategic": "Tactical", "sub_type": "Fire Water Tank" }, "geometry": { "type": "Point", "coordinates": [ 145.095115625138931, -37.447822099178673 ] } },
{ "type": "Feature", "properties": { "id": 1075, "address": "BRUCES CREEK RD", "maxvolume": 0.0, "strategic": "Strategic", "sub_type": "Dam" }, "geometry": { "type": "Point", "coordinates": [ 145.093321822956256, -37.45254671868171 ] } },
{ "type": "Feature", "properties": { "id": 1076, "address": "CNR MERRIANG RD", "maxvolume": 22000.0, "strategic": "Strategic", "sub_type": "Fire Water Tank" }, "geometry": { "type": "Point", "coordinates": [ 145.024622824744654, -37.47414234683184 ] } },
{ "type": "Feature", "properties": { "id": 174, "address": null, "maxvolume": 0.0, "strategic": "Tactical", "sub_type": "Hydrant" }, "geometry": { "type": "Point", "coordinates": [ 145.187500979046405, -37.699269365243367 ] } },
{ "type": "Feature", "properties": { "id": 1077, "address": "MERRIANG RD", "maxvolume": 22000.0, "strategic": "Tactical", "sub_type": "Fire Water Tank" }, "geometry": { "type": "Point", "coordinates": [ 145.031626516303419, -37.458815084595621 ] } },
{ "type": "Feature", "properties": { "id": 1078, "address": "GLENBURNIE RD", "maxvolume": 22000.0, "strategic": "Tactical", "sub_type": "Fire Water Tank" }, "geometry": { "type": "Point", "coordinates": [ 145.047160453848477, -37.491508096863164 ] } },
{ "type": "Feature", "properties": { "id": 1079, "address": "SEVENTEENTH AV", "maxvolume": 22000.0, "strategic": "Tactical", "sub_type": "Fire Water Tank" }, "geometry": { "type": "Point", "coordinates": [ 145.063350285675057, -37.478380993424516 ] } },
{ "type": "Feature", "properties": { "id": 1080, "address": "Stewart St", "maxvolume": 22000.0, "strategic": "Strategic", "sub_type": "Fire Water Tank" }, "geometry": { "type": "Point", "coordinates": [ 144.985029327072539, -37.472068647322814 ] } },
{ "type": "Feature", "properties": { "id": 1081, "address": "Delaneys Rd", "maxvolume": 1250000.0, "strategic": "Strategic", "sub_type": "Dam" }, "geometry": { "type": "Point", "coordinates": [ 145.246051527646102, -37.763646328823704 ] } },
{ "type": "Feature", "properties": { "id": 1082, "address": "HUMEVALE ROAD", "maxvolume": 0.0, "strategic": "Strategic", "sub_type": "Dam" }, "geometry": { "type": "Point", "coordinates": [ 145.172143330230568, -37.497471394473543 ] } },
{ "type": "Feature", "properties": { "id": 181, "address": null, "maxvolume": 0.0, "strategic": "Strategic", "sub_type": "Dam" }, "geometry": { "type": "Point", "coordinates": [ 145.153256719734145, -37.474744813832544 ] } },
{ "type": "Feature", "properties": { "id": 182, "address": "Lorimer Rd", "maxvolume": 0.0, "strategic": "Strategic", "sub_type": "Dam" }, "geometry": { "type": "Point", "coordinates": [ 145.404243086050627, -37.607881516776047 ] } },
{ "type": "Feature", "properties": { "id": 183, "address": "Melba Hwy", "maxvolume": 0.0, "strategic": "Strategic", "sub_type": "Dam" }, "geometry": { "type": "Point", "coordinates": [ 145.417250146333771, -37.611988441890425 ] } },
{ "type": "Feature", "properties": { "id": 184, "address": "Melba Hwy", "maxvolume": 0.0, "strategic": "Strategic", "sub_type": "Dam" }, "geometry": { "type": "Point", "coordinates": [ 145.419916464953474, -37.604282716693533 ] } },
{ "type": "Feature", "properties": { "id": 185, "address": "Melba Hwy", "maxvolume": 0.0, "strategic": "Strategic", "sub_type": "Hydrant" }, "geometry": { "type": "Point", "coordinates": [ 145.416612848338104, -37.604516297191843 ] } },
{ "type": "Feature", "properties": { "id": 186, "address": null, "maxvolume": 0.0, "strategic": "Strategic", "sub_type": "Dam" }, "geometry": { "type": "Point", "coordinates": [ 145.565893533211351, -37.632471003531457 ] } },
{ "type": "Feature", "properties": { "id": 1083, "address": "Research - Warrandyte Rd", "maxvolume": 0.0, "strategic": "Tactical", "sub_type": "Tank" }, "geometry": { "type": "Point", "coordinates": [ 145.180409432747098, -37.70491907725971 ] } },
{ "type": "Feature", "properties": { "id": 1084, "address": "Allendale Rd", "maxvolume": 0.0, "strategic": "Tactical", "sub_type": "Dam" }, "geometry": { "type": "Point", "coordinates": [ 145.180863818723907, -37.691867865446241 ] } },
{ "type": "Feature", "properties": { "id": 1085, "address": "Camelot Cls", "maxvolume": 0.0, "strategic": "Strategic", "sub_type": "Dam" }, "geometry": { "type": "Point", "coordinates": [ 145.204154633269184, -37.708536482787522 ] } },
{ "type": "Feature", "properties": { "id": 1086, "address": "Allendale Rd", "maxvolume": 0.0, "strategic": "Tactical", "sub_type": "Tank" }, "geometry": { "type": "Point", "coordinates": [ 145.189326707263376, -37.692677526852599 ] } },
{ "type": "Feature", "properties": { "id": 1087, "address": "Main Rd", "maxvolume": 0.0, "strategic": "Tactical", "sub_type": "Dam" }, "geometry": { "type": "Point", "coordinates": [ 145.194635307570536, -37.697864793373959 ] } },
{ "type": "Feature", "properties": { "id": 1088, "address": "BRIDGE INN RD", "maxvolume": 0.0, "strategic": "Strategic", "sub_type": "Hydrant" }, "geometry": { "type": "Point", "coordinates": [ 145.068976902959179, -37.597686148944504 ] } },
{ "type": "Feature", "properties": { "id": 1089, "address": "MASONS RD", "maxvolume": 0.0, "strategic": "Strategic", "sub_type": "Hydrant" }, "geometry": { "type": "Point", "coordinates": [ 145.076753578991372, -37.583790164967816 ] } },
{ "type": "Feature", "properties": { "id": 194, "address": "Saxil Gr", "maxvolume": 22500.0, "strategic": "Tactical", "sub_type": "Fire Water Tank" }, "geometry": { "type": "Point", "coordinates": [ 145.487691330334059, -37.642748162399279 ] } },
{ "type": "Feature", "properties": { "id": 195, "address": "Whitlesea - Kinglake Road", "maxvolume": 25000.0, "strategic": "Tactical", "sub_type": "Fire Water Tank" }, "geometry": { "type": "Point", "coordinates": [ 145.281535768001248, -37.481783708967143 ] } },
{ "type": "Feature", "properties": { "id": 196, "address": "Opp 850", "maxvolume": 25000.0, "strategic": "Tactical", "sub_type": "Fire Water Tank" }, "geometry": { "type": "Point", "coordinates": [ 145.281481012197048, -37.481788356178704 ] } },
{ "type": "Feature", "properties": { "id": 197, "address": null, "maxvolume": 0.0, "strategic": "Strategic", "sub_type": "Dam" }, "geometry": { "type": "Point", "coordinates": [ 145.278416459478223, -37.466692154676544 ] } },
{ "type": "Feature", "properties": { "id": 198, "address": "Whittlesea - Kinglake Rd", "maxvolume": 0.0, "strategic": "Strategic", "sub_type": "Dam" }, "geometry": { "type": "Point", "coordinates": [ 145.29478078937305, -37.480805819300706 ] } },
{ "type": "Feature", "properties": { "id": 199, "address": "Thooheys Road", "maxvolume": 0.0, "strategic": "Strategic", "sub_type": "Dam" }, "geometry": { "type": "Point", "coordinates": [ 145.309031631654818, -37.488728445229732 ] } },
{ "type": "Feature", "properties": { "id": 200, "address": "Extons Road", "maxvolume": 80000.0, "strategic": "Strategic", "sub_type": "Fire Water Tank" }, "geometry": { "type": "Point", "coordinates": [ 145.315683873915447, -37.504825001341644 ] } },
{ "type": "Feature", "properties": { "id": 201, "address": "Extons Road", "maxvolume": 80000.0, "strategic": "Strategic", "sub_type": "Fire Water Tank" }, "geometry": { "type": "Point", "coordinates": [ 145.31567219367156, -37.504892626740109 ] } },
{ "type": "Feature", "properties": { "id": 202, "address": "Whittlesea - Kinglake Rd", "maxvolume": 225000.0, "strategic": "Strategic", "sub_type": "Fire Water Tank" }, "geometry": { "type": "Point", "coordinates": [ 145.257105186883052, -37.481629264447506 ] } },
{ "type": "Feature", "properties": { "id": 203, "address": "Whittlesea - Kinglake Rd", "maxvolume": 22000.0, "strategic": "Tactical", "sub_type": "Fire Water Tank" }, "geometry": { "type": "Point", "coordinates": [ 145.258479801362483, -37.481077777774381 ] } },
{ "type": "Feature", "properties": { "id": 204, "address": "Whittlesea - Kinglake Rd", "maxvolume": 80000.0, "strategic": "Strategic", "sub_type": "Fire Water Tank" }, "geometry": { "type": "Point", "coordinates": [ 145.260190804999979, -37.48123990900001 ] } },
{ "type": "Feature", "properties": { "id": 205, "address": "Whittlesea - Kinglake Rd", "maxvolume": 80000.0, "strategic": "Strategic", "sub_type": "Fire Water Tank" }, "geometry": { "type": "Point", "coordinates": [ 145.260177480000038, -37.48134080099998 ] } },
{ "type": "Feature", "properties": { "id": 206, "address": "Edenvale Road", "maxvolume": 0.0, "strategic": "Strategic", "sub_type": "Dam" }, "geometry": { "type": "Point", "coordinates": [ 145.253860574284829, -37.470430759220299 ] } },
{ "type": "Feature", "properties": { "id": 207, "address": "Kelly Crt", "maxvolume": 0.0, "strategic": "Strategic", "sub_type": "Dam" }, "geometry": { "type": "Point", "coordinates": [ 145.269468702772713, -37.470676426065069 ] } },
{ "type": "Feature", "properties": { "id": 208, "address": "Kestral Lane", "maxvolume": 0.0, "strategic": "Strategic", "sub_type": "Dam" }, "geometry": { "type": "Point", "coordinates": [ 145.261167876072392, -37.468505127227992 ] } },
{ "type": "Feature", "properties": { "id": 209, "address": "Kestral Lane", "maxvolume": 0.0, "strategic": "Strategic", "sub_type": "Water Course" }, "geometry": { "type": "Point", "coordinates": [ 145.261723397142049, -37.464304108649173 ] } },
{ "type": "Feature", "properties": { "id": 210, "address": "Nichols Road", "maxvolume": 0.0, "strategic": "Strategic", "sub_type": "Dam" }, "geometry": { "type": "Point", "coordinates": [ 145.243940374788139, -37.458659973063369 ] } },
{ "type": "Feature", "properties": { "id": 211, "address": "Scott Ave", "maxvolume": 22000.0, "strategic": "Tactical", "sub_type": "Fire Water Tank" }, "geometry": { "type": "Point", "coordinates": [ 145.236284301886002, -37.475769951339444 ] } },
{ "type": "Feature", "properties": { "id": 212, "address": "Scott Avenue", "maxvolume": 22000.0, "strategic": "Tactical", "sub_type": "Fire Water Tank" }, "geometry": { "type": "Point", "coordinates": [ 145.23602167859201, -37.475889848761817 ] } },
{ "type": "Feature", "properties": { "id": 213, "address": "Whitlesea - Yea Road", "maxvolume": 0.0, "strategic": "Tactical", "sub_type": "Dam" }, "geometry": { "type": "Point", "coordinates": [ 145.226764751859577, -37.458607989607607 ] } },
{ "type": "Feature", "properties": { "id": 214, "address": "Whitlesea - Yea Road", "maxvolume": 0.0, "strategic": "Tactical", "sub_type": "Water Course" }, "geometry": { "type": "Point", "coordinates": [ 145.229256843173744, -37.458518649005349 ] } },
{ "type": "Feature", "properties": { "id": 215, "address": "National Park Road", "maxvolume": 0.0, "strategic": "Strategic", "sub_type": "Dam" }, "geometry": { "type": "Point", "coordinates": [ 145.268795566165153, -37.496752113583192 ] } },
{ "type": "Feature", "properties": { "id": 216, "address": "National Park Road", "maxvolume": 0.0, "strategic": "Strategic", "sub_type": "Dam" }, "geometry": { "type": "Point", "coordinates": [ 145.266267407099434, -37.497805509689485 ] } },
{ "type": "Feature", "properties": { "id": 217, "address": "National Park Road", "maxvolume": 0.0, "strategic": "Strategic", "sub_type": "Dam" }, "geometry": { "type": "Point", "coordinates": [ 145.274500900232653, -37.489150294321085 ] } },
{ "type": "Feature", "properties": { "id": 218, "address": "Boggy Gate Road", "maxvolume": 35000.0, "strategic": "Tactical", "sub_type": "Fire Water Tank" }, "geometry": { "type": "Point", "coordinates": [ 144.793274817283219, -37.489418232369637 ] } },
{ "type": "Feature", "properties": { "id": 219, "address": "Parker Rd", "maxvolume": 22000.0, "strategic": "Tactical", "sub_type": "Fire Water Tank" }, "geometry": { "type": "Point", "coordinates": [ 145.198720671913975, -37.512516883005645 ] } },
{ "type": "Feature", "properties": { "id": 220, "address": "James St", "maxvolume": 0.0, "strategic": "Strategic", "sub_type": "Dam" }, "geometry": { "type": "Point", "coordinates": [ 145.349004167869538, -37.512559071579624 ] } },
{ "type": "Feature", "properties": { "id": 221, "address": null, "maxvolume": 0.0, "strategic": "Strategic", "sub_type": "Dam" }, "geometry": { "type": "Point", "coordinates": [ 145.349416910580942, -37.511062321521777 ] } },
{ "type": "Feature", "properties": { "id": 222, "address": "Weber Road", "maxvolume": 0.0, "strategic": "Strategic", "sub_type": "Dam" }, "geometry": { "type": "Point", "coordinates": [ 145.357325952982734, -37.50743601433382 ] } },
{ "type": "Feature", "properties": { "id": 223, "address": "Old Glenburn Road", "maxvolume": 22000.0, "strategic": "Tactical", "sub_type": "Fire Water Tank" }, "geometry": { "type": "Point", "coordinates": [ 145.364778408898047, -37.509967476562665 ] } },
{ "type": "Feature", "properties": { "id": 224, "address": "Old Glenburn Road", "maxvolume": 22000.0, "strategic": "Tactical", "sub_type": "Fire Water Tank" }, "geometry": { "type": "Point", "coordinates": [ 145.36473778270792, -37.509997530202661 ] } },
{ "type": "Feature", "properties": { "id": 225, "address": "Old Glenburn Road", "maxvolume": 22000.0, "strategic": "Tactical", "sub_type": "Fire Water Tank" }, "geometry": { "type": "Point", "coordinates": [ 145.364698746776583, -37.510025156553347 ] } },
{ "type": "Feature", "properties": { "id": 226, "address": "Old Glenburn Road", "maxvolume": 22000.0, "strategic": "Tactical", "sub_type": "Fire Water Tank" }, "geometry": { "type": "Point", "coordinates": [ 145.364650409508698, -37.510056328027645 ] } },
{ "type": "Feature", "properties": { "id": 227, "address": "Kinglake - Glenburn Rd", "maxvolume": 20000000.0, "strategic": "Strategic", "sub_type": "Dam" }, "geometry": { "type": "Point", "coordinates": [ 145.375262488288854, -37.495289025393959 ] } },
{ "type": "Feature", "properties": { "id": 1090, "address": "Freyne St", "maxvolume": 0.0, "strategic": "Strategic", "sub_type": "Dam" }, "geometry": { "type": "Point", "coordinates": [ 145.258899837639007, -37.749705742391917 ] } },
{ "type": "Feature", "properties": { "id": 1091, "address": "Glynns Rd", "maxvolume": 0.0, "strategic": "Strategic", "sub_type": "Fire Water Tank" }, "geometry": { "type": "Point", "coordinates": [ 145.196195915632529, -37.728506594056171 ] } },
{ "type": "Feature", "properties": { "id": 1092, "address": "Overbank Rd", "maxvolume": 0.0, "strategic": "Tactical", "sub_type": "Dam" }, "geometry": { "type": "Point", "coordinates": [ 145.191747789592341, -37.728471027203433 ] } },
{ "type": "Feature", "properties": { "id": 1093, "address": "JACKS CREEK RD", "maxvolume": 0.0, "strategic": "Strategic", "sub_type": "Dam" }, "geometry": { "type": "Point", "coordinates": [ 145.153684343283885, -37.476430768647035 ] } },
{ "type": "Feature", "properties": { "id": 1094, "address": "Dinsdale Rd", "maxvolume": 0.0, "strategic": "Strategic", "sub_type": "Dam" }, "geometry": { "type": "Point", "coordinates": [ 145.286850213250119, -37.594606929370833 ] } },
{ "type": "Feature", "properties": { "id": 233, "address": "Ridge Road", "maxvolume": 0.0, "strategic": "Strategic", "sub_type": "Hydrant" }, "geometry": { "type": "Point", "coordinates": [ 145.143984510539042, -37.572335090302055 ] } },
{ "type": "Feature", "properties": { "id": 254, "address": "Black Cameron Rd", "maxvolume": 0.0, "strategic": "Tactical", "sub_type": "Portable Pump" }, "geometry": { "type": "Point", "coordinates": [ 145.281706597363836, -37.617899867535989 ] } },
{ "type": "Feature", "properties": { "id": 1095, "address": "Mittons Bridge Rd", "maxvolume": 0.0, "strategic": "Strategic", "sub_type": "Dam" }, "geometry": { "type": "Point", "coordinates": [ 145.273029733797841, -37.588331057531505 ] } },
{ "type": "Feature", "properties": { "id": 235, "address": "Ridge Road", "maxvolume": 0.0, "strategic": "Strategic", "sub_type": "Hydrant" }, "geometry": { "type": "Point", "coordinates": [ 145.165586731269514, -37.556968558362847 ] } },
{ "type": "Feature", "properties": { "id": 1096, "address": "Heidelberg - Kinglake Rd", "maxvolume": 125000.0, "strategic": "Tactical", "sub_type": "Fire Water Tank" }, "geometry": { "type": "Point", "coordinates": [ 145.285342936726323, -37.585720692084948 ] } },
{ "type": "Feature", "properties": { "id": 237, "address": "Hurstbridge - Arthurs Creek Road", "maxvolume": 0.0, "strategic": "Tactical", "sub_type": "Hydrant" }, "geometry": { "type": "Point", "coordinates": [ 145.206942410525556, -37.583319808052174 ] } },
{ "type": "Feature", "properties": { "id": 238, "address": "Arthurs Creek Road", "maxvolume": 0.0, "strategic": "Tactical", "sub_type": "Hydrant" }, "geometry": { "type": "Point", "coordinates": [ 145.205924149858845, -37.581567416783002 ] } },
{ "type": "Feature", "properties": { "id": 1097, "address": "Heidelberg - Kinglake Rd", "maxvolume": 0.0, "strategic": "Strategic", "sub_type": "Dam" }, "geometry": { "type": "Point", "coordinates": [ 145.286688837870287, -37.589296232283317 ] } },
{ "type": "Feature", "properties": { "id": 240, "address": null, "maxvolume": 0.0, "strategic": "Tactical", "sub_type": "Hydrant" }, "geometry": { "type": "Point", "coordinates": [ 145.201586389412455, -37.579465858862108 ] } },
{ "type": "Feature", "properties": { "id": 241, "address": null, "maxvolume": 0.0, "strategic": "Tactical", "sub_type": "Hydrant" }, "geometry": { "type": "Point", "coordinates": [ 145.202485294419148, -37.579295078311915 ] } },
{ "type": "Feature", "properties": { "id": 242, "address": "Arthurs Creek Road", "maxvolume": 0.0, "strategic": "Tactical", "sub_type": "Hydrant" }, "geometry": { "type": "Point", "coordinates": [ 145.205161302679812, -37.581103766681593 ] } },
{ "type": "Feature", "properties": { "id": 1098, "address": "Dinsdale Rd", "maxvolume": 44000.0, "strategic": "Tactical", "sub_type": "Fire Water Tank" }, "geometry": { "type": "Point", "coordinates": [ 145.294758626677037, -37.588970811316422 ] } },
{ "type": "Feature", "properties": { "id": 244, "address": "Deep Creek Road", "maxvolume": 0.0, "strategic": "Tactical", "sub_type": "Dam" }, "geometry": { "type": "Point", "coordinates": [ 145.19465820292973, -37.566213658505873 ] } },
{ "type": "Feature", "properties": { "id": 245, "address": "Brennans Road East", "maxvolume": 0.0, "strategic": "Strategic", "sub_type": "Hydrant" }, "geometry": { "type": "Point", "coordinates": [ 145.213833389094304, -37.571390723604154 ] } },
{ "type": "Feature", "properties": { "id": 246, "address": "Running Creek Road", "maxvolume": 0.0, "strategic": "Strategic", "sub_type": "Hydrant" }, "geometry": { "type": "Point", "coordinates": [ 145.218308273658749, -37.544441403856112 ] } },
{ "type": "Feature", "properties": { "id": 1099, "address": "Heidelberg - Kinglake Rd", "maxvolume": 22000.0, "strategic": "Tactical", "sub_type": "Fire Water Tank" }, "geometry": { "type": "Point", "coordinates": [ 145.299990545066919, -37.574909121664298 ] } },
{ "type": "Feature", "properties": { "id": 1100, "address": "Heidelberg - Kinglake Rd", "maxvolume": 125000.0, "strategic": "Strategic", "sub_type": "Fire Water Tank" }, "geometry": { "type": "Point", "coordinates": [ 145.300406365594, -37.574895232301905 ] } },
{ "type": "Feature", "properties": { "id": 249, "address": "Townsings Road", "maxvolume": 22000.0, "strategic": "Tactical", "sub_type": "Fire Water Tank" }, "geometry": { "type": "Point", "coordinates": [ 144.673812008993735, -37.598906551381532 ] } },
{ "type": "Feature", "properties": { "id": 1101, "address": "Odeas Rd", "maxvolume": 0.0, "strategic": "Strategic", "sub_type": "Dam" }, "geometry": { "type": "Point", "coordinates": [ 145.281919302360564, -37.529717181868222 ] } },
{ "type": "Feature", "properties": { "id": 251, "address": null, "maxvolume": 0.0, "strategic": "Tactical", "sub_type": "Portable Pump" }, "geometry": { "type": "Point", "coordinates": [ 145.275057521641401, -37.614141320425304 ] } },
{ "type": "Feature", "properties": { "id": 1102, "address": "Beale Ave", "maxvolume": 130000.0, "strategic": "Tactical", "sub_type": "Fire Water Tank" }, "geometry": { "type": "Point", "coordinates": [ 145.275206319907852, -37.528806577937587 ] } },
{ "type": "Feature", "properties": { "id": 253, "address": "Brens Rd", "maxvolume": 0.0, "strategic": "Tactical", "sub_type": "Portable Pump" }, "geometry": { "type": "Point", "coordinates": [ 145.283705764077581, -37.615068972163776 ] } },
{ "type": "Feature", "properties": { "id": 1103, "address": "Chads Creek Rd", "maxvolume": 60000.0, "strategic": "Tactical", "sub_type": "Fire Water Tank" }, "geometry": { "type": "Point", "coordinates": [ 145.26870001333441, -37.522643399117548 ] } },
{ "type": "Feature", "properties": { "id": 1104, "address": "Bowden Spur Road", "maxvolume": 60000.0, "strategic": "Tactical", "sub_type": "Fire Water Tank" }, "geometry": { "type": "Point", "coordinates": [ 145.291173401825205, -37.535407756454369 ] } },
{ "type": "Feature", "properties": { "id": 1105, "address": "ARTHURS CREEK RD", "maxvolume": 0.0, "strategic": "Strategic", "sub_type": "Hydrant" }, "geometry": { "type": "Point", "coordinates": [ 145.143943016000748, -37.572357048157031 ] } },
{ "type": "Feature", "properties": { "id": 1223, "address": "580 Ridge Road", "maxvolume": null, "strategic": "Tactical", "sub_type": "Tank" }, "geometry": { "type": "Point", "coordinates": [ 145.308976310059904, -37.66405757764457 ] } },
{ "type": "Feature", "properties": { "id": 1106, "address": "Arthurs Creek Rd", "maxvolume": 0.0, "strategic": "Tactical", "sub_type": "Dam" }, "geometry": { "type": "Point", "coordinates": [ 145.136892422158951, -37.551923655241616 ] } },
{ "type": "Feature", "properties": { "id": 1107, "address": "Hurstbridge - Arthurs Creek Rd", "maxvolume": 0.0, "strategic": "Strategic", "sub_type": "Hydrant" }, "geometry": { "type": "Point", "coordinates": [ 145.206892182550519, -37.584270531575882 ] } },
{ "type": "Feature", "properties": { "id": 1108, "address": "Arthurs Creek Rd", "maxvolume": 0.0, "strategic": "Strategic", "sub_type": "Hydrant" }, "geometry": { "type": "Point", "coordinates": [ 145.202775873158231, -37.579468210493559 ] } },
{ "type": "Feature", "properties": { "id": 261, "address": null, "maxvolume": 0.0, "strategic": "Strategic", "sub_type": "Hydrant BP" }, "geometry": { "type": "Point", "coordinates": [ 145.269418598813729, -37.602626886679701 ] } },
{ "type": "Feature", "properties": { "id": 262, "address": null, "maxvolume": 0.0, "strategic": "Tactical", "sub_type": "Hydrant" }, "geometry": { "type": "Point", "coordinates": [ 145.26963883735209, -37.602328196103059 ] } },
{ "type": "Feature", "properties": { "id": 263, "address": null, "maxvolume": 0.0, "strategic": "Tactical", "sub_type": "Hydrant" }, "geometry": { "type": "Point", "coordinates": [ 145.269586186492006, -37.601883805552767 ] } },
{ "type": "Feature", "properties": { "id": 264, "address": null, "maxvolume": 0.0, "strategic": "Tactical", "sub_type": "Suction Point" }, "geometry": { "type": "Point", "coordinates": [ 145.27111854709932, -37.601808159693476 ] } },
{ "type": "Feature", "properties": { "id": 265, "address": null, "maxvolume": 0.0, "strategic": "Tactical", "sub_type": "Hydrant" }, "geometry": { "type": "Point", "coordinates": [ 145.270213906548094, -37.602292266439505 ] } },
{ "type": "Feature", "properties": { "id": 266, "address": "Caledonia Street", "maxvolume": 106000.0, "strategic": "Tactical", "sub_type": "Fire Water Tank" }, "geometry": { "type": "Point", "coordinates": [ 145.269324633768122, -37.602660150623443 ] } },
{ "type": "Feature", "properties": { "id": 267, "address": "Caledonia Street", "maxvolume": 92000.0, "strategic": "Tactical", "sub_type": "Fire Water Tank" }, "geometry": { "type": "Point", "coordinates": [ 145.269119368546683, -37.602749518796571 ] } },
{ "type": "Feature", "properties": { "id": 1109, "address": "Eagles Nest Rd", "maxvolume": 130000.0, "strategic": "Tactical", "sub_type": "Fire Water Tank" }, "geometry": { "type": "Point", "coordinates": [ 145.217215841667866, -37.575826355220755 ] } },
{ "type": "Feature", "properties": { "id": 1110, "address": "Ninks Rd", "maxvolume": 120000.0, "strategic": "Strategic", "sub_type": "Fire Water Tank" }, "geometry": { "type": "Point", "coordinates": [ 145.317968945192746, -37.558157275054036 ] } },
{ "type": "Feature", "properties": { "id": 1111, "address": "Heidelberg - Kinglake Rd", "maxvolume": 125000.0, "strategic": "Tactical", "sub_type": "Fire Water Tank" }, "geometry": { "type": "Point", "coordinates": [ 145.337613623091784, -37.555444097703599 ] } },
{ "type": "Feature", "properties": { "id": 1112, "address": "Kangaroo Ground - St Andrews Road", "maxvolume": 0.0, "strategic": "Strategic", "sub_type": "Dam" }, "geometry": { "type": "Point", "coordinates": [ 145.265385556188278, -37.613670086041537 ] } },
{ "type": "Feature", "properties": { "id": 1113, "address": "Cants Creek Rd", "maxvolume": 0.0, "strategic": "Strategic", "sub_type": "Dam" }, "geometry": { "type": "Point", "coordinates": [ 145.288494236280513, -37.611339910993301 ] } },
{ "type": "Feature", "properties": { "id": 1114, "address": "Dodd St", "maxvolume": 0.0, "strategic": "Strategic", "sub_type": "Fire Water Tank" }, "geometry": { "type": "Point", "coordinates": [ 145.285421430623359, -37.608081396492494 ] } },
{ "type": "Feature", "properties": { "id": 1115, "address": "Kerrs Road", "maxvolume": 0.0, "strategic": "Strategic", "sub_type": "Dam" }, "geometry": { "type": "Point", "coordinates": [ 145.260580670095237, -37.611292159007704 ] } },
{ "type": "Feature", "properties": { "id": 1116, "address": "Heidelberg - Kinglake Rd", "maxvolume": 0.0, "strategic": "Strategic", "sub_type": "Dam" }, "geometry": { "type": "Point", "coordinates": [ 145.261532430141386, -37.603501420540077 ] } },
{ "type": "Feature", "properties": { "id": 1117, "address": "Heidelburg - Kinglake Rd", "maxvolume": 22000.0, "strategic": "Tactical", "sub_type": "Tank" }, "geometry": { "type": "Point", "coordinates": [ 145.259021446229042, -37.603824892509209 ] } },
{ "type": "Feature", "properties": { "id": 1118, "address": "School Rd", "maxvolume": 0.0, "strategic": "Strategic", "sub_type": "Tank" }, "geometry": { "type": "Point", "coordinates": [ 145.271139941524268, -37.601452121343812 ] } },
{ "type": "Feature", "properties": { "id": 1119, "address": "Heidelberg - Kinglake Rd", "maxvolume": 92000.0, "strategic": "Tactical", "sub_type": "Fire Water Tank" }, "geometry": { "type": "Point", "coordinates": [ 145.269229269833716, -37.602718203205519 ] } },
{ "type": "Feature", "properties": { "id": 1234, "address": null, "maxvolume": null, "strategic": "Yes", "sub_type": "Hydrant" }, "geometry": { "type": "Point", "coordinates": [ 145.213083409567503, -37.702409517978211 ] } },
{ "type": "Feature", "properties": { "id": 1235, "address": null, "maxvolume": null, "strategic": null, "sub_type": null }, "geometry": { "type": "Point", "coordinates": [ 145.248506574140805, -37.732989876080019 ] } },
{ "type": "Feature", "properties": { "id": 1120, "address": "Heidelberg - Kinglake Rd", "maxvolume": 0.0, "strategic": "Strategic", "sub_type": "Tank" }, "geometry": { "type": "Point", "coordinates": [ 145.267430813919901, -37.604624615442326 ] } },
{ "type": "Feature", "properties": { "id": 1121, "address": "Flora Cresent", "maxvolume": 0.0, "strategic": "Strategic", "sub_type": "Fire Water Tank" }, "geometry": { "type": "Point", "coordinates": [ 145.267164514829204, -37.609421505689511 ] } },
{ "type": "Feature", "properties": { "id": 1122, "address": "Dodd St", "maxvolume": 0.0, "strategic": "Strategic", "sub_type": "Dam" }, "geometry": { "type": "Point", "coordinates": [ 145.283180885948241, -37.603457919660137 ] } },
{ "type": "Feature", "properties": { "id": 282, "address": "Old Kilmore - Lancefield Road", "maxvolume": 0.0, "strategic": "Tactical", "sub_type": "Fire Water Tank" }, "geometry": { "type": "Point", "coordinates": [ 144.876515970520728, -37.28722977616269 ] } },
{ "type": "Feature", "properties": { "id": 283, "address": "Hume Hwy off Ramp", "maxvolume": 20000.0, "strategic": "Tactical", "sub_type": "Fire Water Tank" }, "geometry": { "type": "Point", "coordinates": [ 144.997884587197433, -37.417805213816372 ] } },
{ "type": "Feature", "properties": { "id": 1123, "address": "Caledonia St", "maxvolume": 0.0, "strategic": "Strategic", "sub_type": "Tank" }, "geometry": { "type": "Point", "coordinates": [ 145.27548349143521, -37.598803383123276 ] } },
{ "type": "Feature", "properties": { "id": 1124, "address": "Sutton St", "maxvolume": 120000.0, "strategic": "Strategic", "sub_type": "Fire Water Tank" }, "geometry": { "type": "Point", "coordinates": [ 145.27448671087032, -37.59929350796525 ] } },
{ "type": "Feature", "properties": { "id": 1125, "address": "Buttermans Trk", "maxvolume": 44000.0, "strategic": "Strategic", "sub_type": "Fire Water Tank" }, "geometry": { "type": "Point", "coordinates": [ 145.287579515361443, -37.599253031714667 ] } },
{ "type": "Feature", "properties": { "id": 1126, "address": "Pound Bend Rd", "maxvolume": 0.0, "strategic": "Strategic", "sub_type": "Fire Water Tank" }, "geometry": { "type": "Point", "coordinates": [ 145.206902692213276, -37.735236427638654 ] } },
{ "type": "Feature", "properties": { "id": 1127, "address": "Tarra Place", "maxvolume": 0.0, "strategic": "Strategic", "sub_type": "Dam" }, "geometry": { "type": "Point", "coordinates": [ 145.301405658993019, -37.599548920129131 ] } },
{ "type": "Feature", "properties": { "id": 1128, "address": "Haslams Trk", "maxvolume": 0.0, "strategic": "Strategic", "sub_type": "Fire Water Tank" }, "geometry": { "type": "Point", "coordinates": [ 145.242985047082925, -37.750234741655731 ] } },
{ "type": "Feature", "properties": { "id": 1129, "address": "Lower Homestead Rd", "maxvolume": 0.0, "strategic": "Strategic", "sub_type": "Water Course" }, "geometry": { "type": "Point", "coordinates": [ 145.285345909626301, -37.714269708471171 ] } },
{ "type": "Feature", "properties": { "id": 291, "address": "WILSON ROAD", "maxvolume": 0.0, "strategic": "Strategic", "sub_type": "Hydrant" }, "geometry": { "type": "Point", "coordinates": [ 145.181195445409998, -37.661839925322703 ] } },
{ "type": "Feature", "properties": { "id": 1130, "address": "Lower Homestead Rd", "maxvolume": 0.0, "strategic": "Strategic", "sub_type": "Water Course" }, "geometry": { "type": "Point", "coordinates": [ 145.288337970788859, -37.70305680347866 ] } },
{ "type": "Feature", "properties": { "id": 1131, "address": "Lakeview Rd", "maxvolume": 0.0, "strategic": "Strategic", "sub_type": "Dam" }, "geometry": { "type": "Point", "coordinates": [ 145.268509801119734, -37.591797707421016 ] } },
{ "type": "Feature", "properties": { "id": 1132, "address": "Lower Homestead Rd", "maxvolume": 0.0, "strategic": "Strategic", "sub_type": "Water Course" }, "geometry": { "type": "Point", "coordinates": [ 145.291704242060888, -37.709098836245857 ] } },
{ "type": "Feature", "properties": { "id": 295, "address": "Wandong Rd", "maxvolume": 20000.0, "strategic": "Tactical", "sub_type": "Fire Water Tank" }, "geometry": { "type": "Point", "coordinates": [ 144.982309947142966, -37.337477944536879 ] } },
{ "type": "Feature", "properties": { "id": 296, "address": "Mommsens Rd", "maxvolume": 35000.0, "strategic": "Tactical", "sub_type": "Fire Water Tank" }, "geometry": { "type": "Point", "coordinates": [ 144.835398721387463, -37.516424125174282 ] } },
{ "type": "Feature", "properties": { "id": 1133, "address": "Lower Homestead Rd", "maxvolume": 0.0, "strategic": "Strategic", "sub_type": "Water Course" }, "geometry": { "type": "Point", "coordinates": [ 145.293553953234976, -37.712532288965271 ] } },
{ "type": "Feature", "properties": { "id": 298, "address": "Morang Wetlands West Trk", "maxvolume": 0.0, "strategic": "Strategic", "sub_type": "Dam" }, "geometry": { "type": "Point", "coordinates": [ 145.102087493414956, -37.628494044879041 ] } },
{ "type": "Feature", "properties": { "id": 1134, "address": "Reserve Rd", "maxvolume": 0.0, "strategic": "Strategic", "sub_type": "Water Course" }, "geometry": { "type": "Point", "coordinates": [ 145.284117788791775, -37.718821076682822 ] } },
{ "type": "Feature", "properties": { "id": 300, "address": "Boundary Road", "maxvolume": 0.0, "strategic": "Tactical", "sub_type": "Dam" }, "geometry": { "type": "Point", "coordinates": [ 145.027984402758079, -37.595675233425247 ] } },
{ "type": "Feature", "properties": { "id": 1135, "address": "MAHADYS RD", "maxvolume": 20000.0, "strategic": "Strategic", "sub_type": "Fire Water Tank" }, "geometry": { "type": "Point", "coordinates": [ 145.059827021465139, -37.432267206798244 ] } },
{ "type": "Feature", "properties": { "id": 302, "address": "Bridge Inn Road", "maxvolume": 0.0, "strategic": "Tactical", "sub_type": "Dam" }, "geometry": { "type": "Point", "coordinates": [ 145.037190303841072, -37.588468933733076 ] } },
{ "type": "Feature", "properties": { "id": 303, "address": "Bridge Inn Road", "maxvolume": 0.0, "strategic": "Tactical", "sub_type": "Dam" }, "geometry": { "type": "Point", "coordinates": [ 145.046532003910016, -37.588584968883282 ] } },
{ "type": "Feature", "properties": { "id": 304, "address": "Healseville - Yarra Glen Road", "maxvolume": 0.0, "strategic": "Strategic", "sub_type": "Fire Water Tank" }, "geometry": { "type": "Point", "coordinates": [ 145.382392717891918, -37.660147502527877 ] } },
{ "type": "Feature", "properties": { "id": 305, "address": "Mickelham Road", "maxvolume": 0.0, "strategic": "Tactical", "sub_type": "Fire Water Tank" }, "geometry": { "type": "Point", "coordinates": [ 144.876838483159702, -37.563141588883056 ] } },
{ "type": "Feature", "properties": { "id": 306, "address": null, "maxvolume": 35000.0, "strategic": "Tactical", "sub_type": "Fire Water Tank" }, "geometry": { "type": "Point", "coordinates": [ 144.878384131343182, -37.562446028879116 ] } },
{ "type": "Feature", "properties": { "id": 307, "address": "Mickleham Rd", "maxvolume": 35000.0, "strategic": "Tactical", "sub_type": "Fire Water Tank" }, "geometry": { "type": "Point", "coordinates": [ 144.87912153298879, -37.548106643403919 ] } },
{ "type": "Feature", "properties": { "id": 308, "address": "Mickleham Rd", "maxvolume": 35000.0, "strategic": "Strategic", "sub_type": "Fire Water Tank" }, "geometry": { "type": "Point", "coordinates": [ 144.879113908202925, -37.548158064746659 ] } },
{ "type": "Feature", "properties": { "id": 309, "address": null, "maxvolume": 0.0, "strategic": "Strategic", "sub_type": "Dam" }, "geometry": { "type": "Point", "coordinates": [ 145.311208464118153, -37.675038640288555 ] } },
{ "type": "Feature", "properties": { "id": 1136, "address": "Broad Gully Rd", "maxvolume": 0.0, "strategic": "Strategic", "sub_type": "Dam" }, "geometry": { "type": "Point", "coordinates": [ 145.168369522988712, -37.654426242873186 ] } },
{ "type": "Feature", "properties": { "id": 1137, "address": "Broad Gully Rd", "maxvolume": 0.0, "strategic": "Strategic", "sub_type": "Dam" }, "geometry": { "type": "Point", "coordinates": [ 145.169698869068952, -37.652914799726368 ] } },
{ "type": "Feature", "properties": { "id": 1138, "address": "Broad Gully Rd", "maxvolume": 0.0, "strategic": "Strategic", "sub_type": "Dam" }, "geometry": { "type": "Point", "coordinates": [ 145.169121310262028, -37.653816071870004 ] } },
{ "type": "Feature", "properties": { "id": 1139, "address": "Wadeson Rd", "maxvolume": 0.0, "strategic": "Strategic", "sub_type": "Dam" }, "geometry": { "type": "Point", "coordinates": [ 145.181617702182905, -37.647574660583217 ] } },
{ "type": "Feature", "properties": { "id": 1140, "address": "Wilson Rd", "maxvolume": 0.0, "strategic": "Strategic", "sub_type": "Dam" }, "geometry": { "type": "Point", "coordinates": [ 145.174788482065168, -37.657076236703887 ] } },
{ "type": "Feature", "properties": { "id": 427, "address": "Watsons Road", "maxvolume": 22000.0, "strategic": "Tactical", "sub_type": "Fire Water Tank" }, "geometry": { "type": "Point", "coordinates": [ 145.274317660193049, -37.46151768274445 ] } },
{ "type": "Feature", "properties": { "id": 1141, "address": "Wilson Rd", "maxvolume": 0.0, "strategic": "Strategic", "sub_type": "Dam" }, "geometry": { "type": "Point", "coordinates": [ 145.179981301576106, -37.658427225502216 ] } },
{ "type": "Feature", "properties": { "id": 1142, "address": "Broad Gully Rd", "maxvolume": 0.0, "strategic": "Strategic", "sub_type": "Dam" }, "geometry": { "type": "Point", "coordinates": [ 145.17199946325988, -37.649697057961937 ] } },
{ "type": "Feature", "properties": { "id": 1143, "address": "Broad Gully Rd", "maxvolume": 0.0, "strategic": "Strategic", "sub_type": "Dam" }, "geometry": { "type": "Point", "coordinates": [ 145.170682038025404, -37.647955287705194 ] } },
{ "type": "Feature", "properties": { "id": 1144, "address": "Challanger St", "maxvolume": 0.0, "strategic": "Tactical", "sub_type": "Dam" }, "geometry": { "type": "Point", "coordinates": [ 145.151077284231604, -37.682232207377417 ] } },
{ "type": "Feature", "properties": { "id": 1145, "address": "Yan Yean Rd", "maxvolume": 0.0, "strategic": "Strategic", "sub_type": "Dam" }, "geometry": { "type": "Point", "coordinates": [ 145.13214448306897, -37.624901748784417 ] } },
{ "type": "Feature", "properties": { "id": 320, "address": "Smiths Gully Road", "maxvolume": 0.0, "strategic": "Tactical", "sub_type": "Portable Pump" }, "geometry": { "type": "Point", "coordinates": [ 145.264850858391327, -37.620777463517001 ] } },
{ "type": "Feature", "properties": { "id": 1146, "address": "Running Creek Rd", "maxvolume": 0.0, "strategic": "Tactical", "sub_type": "Dam" }, "geometry": { "type": "Point", "coordinates": [ 145.226030397409318, -37.531703103518502 ] } },
{ "type": "Feature", "properties": { "id": 1001, "address": "Simpson Rd", "maxvolume": 0.0, "strategic": "Strategic", "sub_type": "Dam" }, "geometry": { "type": "Point", "coordinates": [ 145.298022715863766, -37.666060842573124 ] } },
{ "type": "Feature", "properties": { "id": 1147, "address": "EPPING ROAD", "maxvolume": 22000.0, "strategic": "Strategic", "sub_type": "Fire Water Tank" }, "geometry": { "type": "Point", "coordinates": [ 145.032762127037927, -37.591806736242205 ] } },
{ "type": "Feature", "properties": { "id": 1148, "address": "Muir Rd", "maxvolume": 120000.0, "strategic": "Tactical", "sub_type": "Fire Water Tank" }, "geometry": { "type": "Point", "coordinates": [ 145.343588210929909, -37.655965999825391 ] } },
{ "type": "Feature", "properties": { "id": 1149, "address": "Mount Wise Rd", "maxvolume": 22000.0, "strategic": "Tactical", "sub_type": "Fire Water Tank" }, "geometry": { "type": "Point", "coordinates": [ 145.353373942812851, -37.641725196552436 ] } },
{ "type": "Feature", "properties": { "id": 1150, "address": "Buttermans Trk", "maxvolume": 22000.0, "strategic": "Tactical", "sub_type": "Fire Water Tank" }, "geometry": { "type": "Point", "coordinates": [ 145.33837488504949, -37.634973604377457 ] } },
{ "type": "Feature", "properties": { "id": 1151, "address": "Skyline Rd North", "maxvolume": 22000.0, "strategic": "Tactical", "sub_type": "Fire Water Tank" }, "geometry": { "type": "Point", "coordinates": [ 145.356612989233042, -37.623381945139194 ] } },
{ "type": "Feature", "properties": { "id": 1152, "address": "Skyline Rd North", "maxvolume": 130000.0, "strategic": "Tactical", "sub_type": "Fire Water Tank" }, "geometry": { "type": "Point", "coordinates": [ 145.353677912691808, -37.642446612632334 ] } },
{ "type": "Feature", "properties": { "id": 1154, "address": "Buttermans Trk", "maxvolume": 0.0, "strategic": "Strategic", "sub_type": "Dam" }, "geometry": { "type": "Point", "coordinates": [ 145.320684529383811, -37.610218999709595 ] } },
{ "type": "Feature", "properties": { "id": 1155, "address": "Buttermans Trk", "maxvolume": 0.0, "strategic": "Strategic", "sub_type": "Dam" }, "geometry": { "type": "Point", "coordinates": [ 145.33582691929908, -37.631673341485659 ] } },
{ "type": "Feature", "properties": { "id": 1156, "address": "Smiths Gully Rd", "maxvolume": 120000.0, "strategic": "Strategic", "sub_type": "Fire Water Tank" }, "geometry": { "type": "Point", "coordinates": [ 145.295006434911954, -37.620852227117524 ] } },
{ "type": "Feature", "properties": { "id": 333, "address": null, "maxvolume": 18000.0, "strategic": "Tactical", "sub_type": "Fire Water Tank" }, "geometry": { "type": "Point", "coordinates": [ 145.304552433672995, -37.653592223513002 ] } },
{ "type": "Feature", "properties": { "id": 1157, "address": "Marshalls Rd", "maxvolume": 44000.0, "strategic": "Tactical", "sub_type": "Fire Water Tank" }, "geometry": { "type": "Point", "coordinates": [ 145.321822049669436, -37.611944867575623 ] } },
{ "type": "Feature", "properties": { "id": 1158, "address": "Rob Roy Rd", "maxvolume": 22000.0, "strategic": "Tactical", "sub_type": "Fire Water Tank" }, "geometry": { "type": "Point", "coordinates": [ 145.283539416697181, -37.633182068266478 ] } },
{ "type": "Feature", "properties": { "id": 336, "address": "Clintons Road", "maxvolume": 0.0, "strategic": "Tactical", "sub_type": "Dam" }, "geometry": { "type": "Point", "coordinates": [ 145.282875759606242, -37.641803415203263 ] } },
{ "type": "Feature", "properties": { "id": 337, "address": null, "maxvolume": 0.0, "strategic": "Tactical", "sub_type": "Dam" }, "geometry": { "type": "Point", "coordinates": [ 145.288261121624146, -37.63946194808122 ] } },
{ "type": "Feature", "properties": { "id": 1159, "address": "Smiths Gully Rd", "maxvolume": 0.0, "strategic": "Strategic", "sub_type": "Dam" }, "geometry": { "type": "Point", "coordinates": [ 145.28437126812554, -37.620535579237554 ] } },
{ "type": "Feature", "properties": { "id": 1160, "address": "Motschalls Rd", "maxvolume": 0.0, "strategic": "Tactical", "sub_type": "Dam" }, "geometry": { "type": "Point", "coordinates": [ 145.266235052923633, -37.636601143336541 ] } },
{ "type": "Feature", "properties": { "id": 1161, "address": "Mine Shaft Rd", "maxvolume": 44000.0, "strategic": "Tactical", "sub_type": "Fire Water Tank" }, "geometry": { "type": "Point", "coordinates": [ 145.302567838103414, -37.631633680484477 ] } },
{ "type": "Feature", "properties": { "id": 1162, "address": "Happy Valley Trk", "maxvolume": 0.0, "strategic": "Tactical", "sub_type": "Dam" }, "geometry": { "type": "Point", "coordinates": [ 145.303390836244461, -37.635311926164164 ] } },
{ "type": "Feature", "properties": { "id": 1163, "address": "Skyline Rd South", "maxvolume": 0.0, "strategic": "Strategic", "sub_type": "Dam" }, "geometry": { "type": "Point", "coordinates": [ 145.300099547379688, -37.705588234509406 ] } },
{ "type": "Feature", "properties": { "id": 1164, "address": "Ironbark Rd", "maxvolume": 22000.0, "strategic": "Tactical", "sub_type": "Fire Water Tank" }, "geometry": { "type": "Point", "coordinates": [ 145.278403814215238, -37.710311247193317 ] } },
{ "type": "Feature", "properties": { "id": 1165, "address": "Oxley Rd", "maxvolume": 0.0, "strategic": "Tactical", "sub_type": "Water Course" }, "geometry": { "type": "Point", "coordinates": [ 145.265614601885716, -37.700768987662478 ] } },
{ "type": "Feature", "properties": { "id": 1166, "address": "Oxley Rd", "maxvolume": 120000.0, "strategic": "Strategic", "sub_type": "Fire Water Tank" }, "geometry": { "type": "Point", "coordinates": [ 145.271082638900509, -37.700659028167912 ] } },
{ "type": "Feature", "properties": { "id": 1167, "address": "Catani Bvd", "maxvolume": 0.0, "strategic": "Tactical", "sub_type": "Tank" }, "geometry": { "type": "Point", "coordinates": [ 145.285210911016691, -37.700680903731616 ] } },
{ "type": "Feature", "properties": { "id": 1168, "address": "Henley Rd", "maxvolume": 22000.0, "strategic": "Tactical", "sub_type": "Fire Water Tank" }, "geometry": { "type": "Point", "coordinates": [ 145.286293196678855, -37.700233271693129 ] } },
{ "type": "Feature", "properties": { "id": 1169, "address": "Bourchiers Rd", "maxvolume": 0.0, "strategic": "Strategic", "sub_type": "Water Course" }, "geometry": { "type": "Point", "coordinates": [ 145.254536620034656, -37.710107074278383 ] } },
{ "type": "Feature", "properties": { "id": 350, "address": "Menzies Road", "maxvolume": 0.0, "strategic": "Strategic", "sub_type": "Hydrant" }, "geometry": { "type": "Point", "coordinates": [ 145.236004604964876, -37.717147971998607 ] } },
{ "type": "Feature", "properties": { "id": 351, "address": null, "maxvolume": 0.0, "strategic": "Tactical", "sub_type": "Water Course" }, "geometry": { "type": "Point", "coordinates": [ 145.246722139158209, -37.720531367058406 ] } },
{ "type": "Feature", "properties": { "id": 1170, "address": "Jumping Creek Rd", "maxvolume": 0.0, "strategic": "Strategic", "sub_type": "Tank" }, "geometry": { "type": "Point", "coordinates": [ 145.241887259848482, -37.731428678155048 ] } },
{ "type": "Feature", "properties": { "id": 1171, "address": "Jumping Creek Rd", "maxvolume": 0.0, "strategic": "Strategic", "sub_type": "Water Course" }, "geometry": { "type": "Point", "coordinates": [ 145.242178454192612, -37.732550539319888 ] } },
{ "type": "Feature", "properties": { "id": 354, "address": "ALFRED PLACE", "maxvolume": 0.0, "strategic": "Strategic", "sub_type": "Dam" }, "geometry": { "type": "Point", "coordinates": [ 145.247864739383544, -37.678611176807046 ] } },
{ "type": "Feature", "properties": { "id": 1172, "address": "Jumping Creek Rd", "maxvolume": 0.0, "strategic": "Strategic", "sub_type": "Water Course" }, "geometry": { "type": "Point", "coordinates": [ 145.24306979838596, -37.719494962826857 ] } },
{ "type": "Feature", "properties": { "id": 1173, "address": "Market Garden Track", "maxvolume": 0.0, "strategic": "Strategic", "sub_type": "Dam" }, "geometry": { "type": "Point", "coordinates": [ 145.273144876192589, -37.710108146817539 ] } },
{ "type": "Feature", "properties": { "id": 1174, "address": "Lucerne Paddock Track", "maxvolume": 0.0, "strategic": "Strategic", "sub_type": "Water Course" }, "geometry": { "type": "Point", "coordinates": [ 145.262439847908581, -37.708490836457798 ] } },
{ "type": "Feature", "properties": { "id": 1175, "address": "Lucerne Paddock Track", "maxvolume": 0.0, "strategic": "Strategic", "sub_type": "Water Course" }, "geometry": { "type": "Point", "coordinates": [ 145.266847912028595, -37.708204253744341 ] } },
{ "type": "Feature", "properties": { "id": 1176, "address": "Bradleys Ln", "maxvolume": 0.0, "strategic": "Strategic", "sub_type": "Water Course" }, "geometry": { "type": "Point", "coordinates": [ 145.2025499549014, -37.740198911571795 ] } },
{ "type": "Feature", "properties": { "id": 1177, "address": "Research-Warrandyte Rd", "maxvolume": 0.0, "strategic": "Strategic", "sub_type": "Tank" }, "geometry": { "type": "Point", "coordinates": [ 145.214541069562102, -37.729512499847417 ] } },
{ "type": "Feature", "properties": { "id": 1179, "address": "Yarra St", "maxvolume": 0.0, "strategic": "Strategic", "sub_type": "Water Course" }, "geometry": { "type": "Point", "coordinates": [ 145.222979777721889, -37.736300072609851 ] } },
{ "type": "Feature", "properties": { "id": 1181, "address": "Nelson Dr", "maxvolume": 0.0, "strategic": "Strategic", "sub_type": "Dam" }, "geometry": { "type": "Point", "coordinates": [ 145.23645847714559, -37.742807716078111 ] } },
{ "type": "Feature", "properties": { "id": 363, "address": "Osborne Road", "maxvolume": 0.0, "strategic": "Tactical", "sub_type": "Tank" }, "geometry": { "type": "Point", "coordinates": [ 145.236806251780649, -37.729917054099218 ] } },
{ "type": "Feature", "properties": { "id": 364, "address": null, "maxvolume": 0.0, "strategic": "Tactical", "sub_type": "Portable Pump" }, "geometry": { "type": "Point", "coordinates": [ 145.235511424289939, -37.722856071365776 ] } },
{ "type": "Feature", "properties": { "id": 365, "address": null, "maxvolume": 0.0, "strategic": "Tactical", "sub_type": "Portable Pump" }, "geometry": { "type": "Point", "coordinates": [ 145.236045742886006, -37.725660978630302 ] } },
{ "type": "Feature", "properties": { "id": 366, "address": "Tunnel St", "maxvolume": 0.0, "strategic": "Tactical", "sub_type": "Hydrant" }, "geometry": { "type": "Point", "coordinates": [ 145.221095959415123, -37.746379310384853 ] } },
{ "type": "Feature", "properties": { "id": 1182, "address": "Pound Bend Rd", "maxvolume": 0.0, "strategic": "Strategic", "sub_type": "Hydrant" }, "geometry": { "type": "Point", "coordinates": [ 145.208379700282848, -37.734691124734624 ] } },
{ "type": "Feature", "properties": { "id": 1183, "address": "Tills Drv", "maxvolume": 0.0, "strategic": "Tactical", "sub_type": "Portable Pump" }, "geometry": { "type": "Point", "coordinates": [ 145.235846, -37.731486 ] } },
{ "type": "Feature", "properties": { "id": 1184, "address": "O'Briens La", "maxvolume": 0.0, "strategic": "Strategic", "sub_type": "Dam" }, "geometry": { "type": "Point", "coordinates": [ 145.142592072893365, -37.748524488186177 ] } },
{ "type": "Feature", "properties": { "id": 1185, "address": "O'Briens La", "maxvolume": 0.0, "strategic": "Strategic", "sub_type": "Dam" }, "geometry": { "type": "Point", "coordinates": [ 145.148953926220571, -37.742361195248527 ] } },
{ "type": "Feature", "properties": { "id": 1186, "address": "Mockington Rd", "maxvolume": 0.0, "strategic": "Strategic", "sub_type": "Dam" }, "geometry": { "type": "Point", "coordinates": [ 145.156448507830163, -37.737152528957012 ] } },
{ "type": "Feature", "properties": { "id": 1187, "address": "Cliveden Ct", "maxvolume": 0.0, "strategic": "Strategic", "sub_type": "Dam" }, "geometry": { "type": "Point", "coordinates": [ 145.161889311455923, -37.7401574530004 ] } },
{ "type": "Feature", "properties": { "id": 1188, "address": "Alexander Rd", "maxvolume": 0.0, "strategic": "Strategic", "sub_type": "Water Course" }, "geometry": { "type": "Point", "coordinates": [ 145.174485590956721, -37.735558809139626 ] } },
{ "type": "Feature", "properties": { "id": 1189, "address": "Johnsons Rd", "maxvolume": 0.0, "strategic": "Strategic", "sub_type": "Dam" }, "geometry": { "type": "Point", "coordinates": [ 145.237198507344374, -37.75018515915815 ] } },
{ "type": "Feature", "properties": { "id": 1190, "address": "Hall Rd", "maxvolume": 0.0, "strategic": "Strategic", "sub_type": "Dam" }, "geometry": { "type": "Point", "coordinates": [ 145.232327303731125, -37.764576744610167 ] } },
{ "type": "Feature", "properties": { "id": 377, "address": null, "maxvolume": 0.0, "strategic": "Tactical", "sub_type": "Portable Pump" }, "geometry": { "type": "Point", "coordinates": [ 145.164074532711993, -37.735233881979497 ] } },
{ "type": "Feature", "properties": { "id": 1191, "address": "BRIIDGE ST", "maxvolume": 0.0, "strategic": "Strategic", "sub_type": "Hydrant BP" }, "geometry": { "type": "Point", "coordinates": [ 145.140853823995656, -37.718198368916738 ] } },
{ "type": "Feature", "properties": { "id": 1192, "address": "Overbank Rd", "maxvolume": 22000.0, "strategic": "Tactical", "sub_type": "Fire Water Tank" }, "geometry": { "type": "Point", "coordinates": [ 145.180759531684288, -37.7268058923326 ] } },
{ "type": "Feature", "properties": { "id": 1193, "address": "Eucalyptus Rd", "maxvolume": 0.0, "strategic": "Tactical", "sub_type": "Dam" }, "geometry": { "type": "Point", "coordinates": [ 145.165006889272746, -37.722362003754974 ] } },
{ "type": "Feature", "properties": { "id": 1194, "address": "Mount Pleasant Rd", "maxvolume": 0.0, "strategic": "Tactical", "sub_type": "Tank" }, "geometry": { "type": "Point", "coordinates": [ 145.191297035092873, -37.721813119066795 ] } },
{ "type": "Feature", "properties": { "id": 1195, "address": "Morrisons Track", "maxvolume": 0.0, "strategic": "Strategic", "sub_type": "Water Course" }, "geometry": { "type": "Point", "coordinates": [ 145.169122066667001, -37.734685866666702 ] } },
{ "type": "Feature", "properties": { "id": 1196, "address": "Eel Trap Trk", "maxvolume": 0.0, "strategic": "Tactical", "sub_type": "Water Course" }, "geometry": { "type": "Point", "coordinates": [ 145.180052249102005, -37.732160979785696 ] } },
{ "type": "Feature", "properties": { "id": 1197, "address": "Laughing Waters Rd", "maxvolume": 22000.0, "strategic": "Tactical", "sub_type": "Fire Water Tank" }, "geometry": { "type": "Point", "coordinates": [ 145.18477729329777, -37.730013093272063 ] } },
{ "type": "Feature", "properties": { "id": 953, "address": null, "maxvolume": 0.0, "strategic": "Tactical", "sub_type": "Hydrant" }, "geometry": { "type": "Point", "coordinates": [ 145.215275036193987, -37.691369261632893 ] } },
{ "type": "Feature", "properties": { "id": 386, "address": null, "maxvolume": 0.0, "strategic": "Tactical", "sub_type": "Portable Pump" }, "geometry": { "type": "Point", "coordinates": [ 145.179006856603991, -37.737853027973202 ] } },
{ "type": "Feature", "properties": { "id": 952, "address": null, "maxvolume": 0.0, "strategic": "Tactical", "sub_type": "Hydrant BP" }, "geometry": { "type": "Point", "coordinates": [ 145.215531092537702, -37.691334453335195 ] } },
{ "type": "Feature", "properties": { "id": 951, "address": null, "maxvolume": 0.0, "strategic": "Tactical", "sub_type": "Hydrant" }, "geometry": { "type": "Point", "coordinates": [ 145.214850737743006, -37.690931770154684 ] } },
{ "type": "Feature", "properties": { "id": 950, "address": null, "maxvolume": 0.0, "strategic": "Tactical", "sub_type": "Hydrant" }, "geometry": { "type": "Point", "coordinates": [ 145.214563902579954, -37.691268367681054 ] } },
{ "type": "Feature", "properties": { "id": 390, "address": "Mayfair Ave", "maxvolume": 0.0, "strategic": "Tactical", "sub_type": "Fire Water Tank" }, "geometry": { "type": "Point", "coordinates": [ 144.646419350652963, -37.797588215946107 ] } },
{ "type": "Feature", "properties": { "id": 391, "address": "Mickleham Rd", "maxvolume": 35000.0, "strategic": "Tactical", "sub_type": "Fire Water Tank" }, "geometry": { "type": "Point", "coordinates": [ 144.883212919393856, -37.537557985480504 ] } },
{ "type": "Feature", "properties": { "id": 392, "address": "Mickleham Rd", "maxvolume": 35000.0, "strategic": "Tactical", "sub_type": "Fire Water Tank" }, "geometry": { "type": "Point", "coordinates": [ 144.88319707292834, -37.537599663384732 ] } },
{ "type": "Feature", "properties": { "id": 393, "address": "Carawa Crt", "maxvolume": 35000.0, "strategic": "Tactical", "sub_type": "Fire Water Tank" }, "geometry": { "type": "Point", "coordinates": [ 144.895431211438478, -37.508735997518066 ] } },
{ "type": "Feature", "properties": { "id": 394, "address": "Konagaderra Road", "maxvolume": 35000.0, "strategic": "Tactical", "sub_type": "Fire Water Tank" }, "geometry": { "type": "Point", "coordinates": [ 144.827974843422879, -37.524898146386086 ] } },
{ "type": "Feature", "properties": { "id": 395, "address": "Konagaderra Road", "maxvolume": 35000.0, "strategic": "Tactical", "sub_type": "Fire Water Tank" }, "geometry": { "type": "Point", "coordinates": [ 144.850077938817293, -37.553954037968268 ] } },
{ "type": "Feature", "properties": { "id": 396, "address": "Freehans Road", "maxvolume": 35000.0, "strategic": "Tactical", "sub_type": "Fire Water Tank" }, "geometry": { "type": "Point", "coordinates": [ 144.812965070963344, -37.553858266972917 ] } },
{ "type": "Feature", "properties": { "id": 397, "address": "Freehans Road", "maxvolume": 35000.0, "strategic": "Tactical", "sub_type": "Fire Water Tank" }, "geometry": { "type": "Point", "coordinates": [ 144.812975739862111, -37.553911055489841 ] } },
{ "type": "Feature", "properties": { "id": 398, "address": null, "maxvolume": 0.0, "strategic": "Tactical", "sub_type": "Dam" }, "geometry": { "type": "Point", "coordinates": [ 144.902612643645227, -37.628510878580684 ] } },
{ "type": "Feature", "properties": { "id": 399, "address": "Tanunda Wetlands Track", "maxvolume": 0.0, "strategic": "Strategic", "sub_type": "Dam" }, "geometry": { "type": "Point", "coordinates": [ 145.081705297676706, -37.676398274047216 ] } },
{ "type": "Feature", "properties": { "id": 400, "address": "Mt Slide Road", "maxvolume": 22000.0, "strategic": "Tactical", "sub_type": "Fire Water Tank" }, "geometry": { "type": "Point", "coordinates": [ 145.389339021390157, -37.539935633145646 ] } },
{ "type": "Feature", "properties": { "id": 401, "address": "Mt Slide Road", "maxvolume": 22000.0, "strategic": "Tactical", "sub_type": "Fire Water Tank" }, "geometry": { "type": "Point", "coordinates": [ 145.389297763736323, -37.53996207029639 ] } },
{ "type": "Feature", "properties": { "id": 402, "address": "Healesville - Kinglake Road", "maxvolume": 22000.0, "strategic": "Tactical", "sub_type": "Fire Water Tank" }, "geometry": { "type": "Point", "coordinates": [ 145.376224856882914, -37.537200396434216 ] } },
{ "type": "Feature", "properties": { "id": 403, "address": null, "maxvolume": 0.0, "strategic": "Strategic", "sub_type": "Dam" }, "geometry": { "type": "Point", "coordinates": [ 145.389688436380737, -37.524277051221908 ] } },
{ "type": "Feature", "properties": { "id": 404, "address": "237 Gordons Bridge Road", "maxvolume": 0.0, "strategic": "Strategic", "sub_type": "Dam" }, "geometry": { "type": "Point", "coordinates": [ 145.388180760355198, -37.522593163977014 ] } },
{ "type": "Feature", "properties": { "id": 405, "address": null, "maxvolume": 0.0, "strategic": "Strategic", "sub_type": "Dam" }, "geometry": { "type": "Point", "coordinates": [ 145.406469306605516, -37.508773003345368 ] } },
{ "type": "Feature", "properties": { "id": 406, "address": "Gordons Bridge Road", "maxvolume": 0.0, "strategic": "Strategic", "sub_type": "Dam" }, "geometry": { "type": "Point", "coordinates": [ 145.409046757849154, -37.508162616752593 ] } },
{ "type": "Feature", "properties": { "id": 407, "address": "Steels Creek Road", "maxvolume": 0.0, "strategic": "Strategic", "sub_type": "Dam" }, "geometry": { "type": "Point", "coordinates": [ 145.380574851303606, -37.608322668393356 ] } },
{ "type": "Feature", "properties": { "id": 408, "address": "Steels Creek Road", "maxvolume": 0.0, "strategic": "Strategic", "sub_type": "Dam" }, "geometry": { "type": "Point", "coordinates": [ 145.373327253812818, -37.601110161189766 ] } },